stop_id,stop_code,stop_name,stop_desc,stop_lat,stop_lon,zone_id,stop_url,location_type,parent_station,stop_timezone,wheelchair_boarding
par_8_06686,06686,AV.BURGOS-C.C.SANCHINARRO,Avda de Burgos 133,40.498046875,-3.66299557685852,A,http://www.crtm.es,0,,Europe/Madrid,2
par_8_06687,06687,AV.BURGOS-DOMINICOS,Avda de Burgos 11300,40.5014419555664,-3.65994882583618,A,http://www.crtm.es,0,,Europe/Madrid,2
par_8_06689,06689,CTRA.A1-CUESTA BLANCA,Ctra de Irún 13700,40.5217704772949,-3.65101075172424,B1,http://www.crtm.es,0,,Europe/Madrid,2
par_8_06690,06690,CTRA.IRÚN-CONCESIONARIO,Ctra de Irún 14700,40.5337944030762,-3.64185833930969,B1,http://www.crtm.es,0,,Europe/Madrid,2
par_8_06691,06691,AV.OLÍMPICA-C.C.LA VEGA,Avda   Olímpica 9,40.5352478027344,-3.63698363304138,B1,http://www.crtm.es,0,,Europe/Madrid,2
par_8_06692,06692,AV.OLÍMPICA-PABELLÓN DEPORTIVO,Avda   Olímpica 5 A,40.5364875793457,-3.63275647163391,B1,http://www.crtm.es,0,,Europe/Madrid,2
par_8_06755,06755,MARQUESA VIUDA DE ALDAMA-NªSRA.DEL PILAR,Calle de la Marquesa Viuda de Aldama 14,40.5413055419922,-3.63294339179993,B1,http://www.crtm.es,0,,Europe/Madrid,2
par_8_06756,06756,MARQUÉS VALDAVIA-RAMÓN FDEZ.GUISASOLA,Calle del Marqués de la Valdavia 20,40.5408248901367,-3.6367175579071,B1,http://www.crtm.es,0,,Europe/Madrid,2
par_8_06758,06758,MARQUÉS VALDAVIA-NEMESIO CASTRO,Calle del Marqués de la Valdavia 44,40.5426254272461,-3.63852977752686,B1,http://www.crtm.es,0,,Europe/Madrid,2
par_8_06759,06759,MARQUÉS VALDAVIA-AV.ESPAÑA,Calle del Marqués de la Valdavia 88,40.5447883605957,-3.64296698570251,B1,http://www.crtm.es,0,,Europe/Madrid,2
par_8_06762,06762,AV.ESPAÑA-AYUNTAMIENTO,Avda de España SN,40.5472755432129,-3.6412193775177,B1,http://www.crtm.es,0,,Europe/Madrid,2
par_8_06763,06763,AV.ESPAÑA-AYUNTAMIENTO,Avda de España 34,40.5471420288086,-3.64091086387634,B1,http://www.crtm.es,0,,Europe/Madrid,2
par_8_06766,06766,MARQUÉS VALDAVIA-AV.ESPAÑA,Calle del Marqués de la Valdavia 69,40.5445098876953,-3.64283442497253,B1,http://www.crtm.es,0,,Europe/Madrid,2
par_8_06767,06767,MARQUÉS VALDAVIA-ISLAS BIKINI,Calle del Marqués de la Valdavia 37,40.5427932739258,-3.63915705680847,B1,http://www.crtm.es,0,,Europe/Madrid,2
par_8_06768,06768,LIBERTAD-JULIÁN BAENA CASTRO,Calle de la Libertad 26,40.5395812988281,-3.63649344444275,B1,http://www.crtm.es,0,,Europe/Madrid,2
par_8_06863,06863,CTRA.A1-CUESTA BLANCA,Ctra  A-1 (VÍA DE SERVICIO) 14.200,40.5223350524902,-3.65168905258179,B1,http://www.crtm.es,0,,Europe/Madrid,2
par_8_06864,06864,CTRA.A1-EL ENCINAR DE LOS REYES,Ctra de Irún  13.000,40.5145568847656,-3.65547370910645,B1,http://www.crtm.es,0,,Europe/Madrid,2
par_8_06865,06865,AV.BURGOS-DOMINICOS,Avda de Santo Domingo de la Calzada 1,40.5019798278809,-3.66061496734619,A,http://www.crtm.es,0,,Europe/Madrid,2
par_8_07236,07236,AV.ESPAÑA-M.SEBASTIÁN IZUEL,Avda de España 72,40.5409965515137,-3.62847685813904,B1,http://www.crtm.es,0,,Europe/Madrid,2
par_8_10550,10550,PºLA CASTELLANA-HOSPITAL LA PAZ,Paseo de la Castellana 296,40.4795417785645,-3.68592572212219,A,http://www.crtm.es,0,,Europe/Madrid,2
par_8_10614,10614,AV.ESPAÑA-EST.ALCOBENDAS-S.S.REYES,Avda de España 52,40.546688079834,-3.63500165939331,B1,http://www.crtm.es,0,,Europe/Madrid,2
par_8_15318,15318,AV.ESPAÑA-CENTRO DE SALUD,Avda de España 23,40.5478782653809,-3.63829612731934,B1,http://www.crtm.es,0,,Europe/Madrid,2
par_8_17472,17472,INTERCAMBIADOR DE PLAZA CASTILLA,Avda de Asturias 2,40.4666328430176,-3.6904890537262,A,http://www.crtm.es,0,est_90_21,,2
par_8_18074,18074,INTERCAMBIADOR DE PLAZA CASTILLA,Paseo de la Castellana 195 A,40.4675521850586,-3.68892955780029,A,http://www.crtm.es,0,est_90_21,,0
par_8_3253,3253,Pº CASTELLANA-HOSPITAL LA PAZ,Acces  Nudo Norte 29700,40.4806365966797,-3.68515825271606,A,http://www.crtm.es,0,,Europe/Madrid,0
par_8_3261,3261,AV.BURGOS-FCO.PI Y MARGALL,Avda de Burgos 10300,40.4943084716797,-3.66743111610413,A,http://www.crtm.es,0,,Europe/Madrid,0
par_8_3265,3265,AV.BURGOS Nº 87-PASO ELEVADO,Avda de Burgos 87,40.4900245666504,-3.67299365997314,A,http://www.crtm.es,0,,Europe/Madrid,0
par_8_3566,3566,AV.BURGOS-AV.MANOTERAS,Avda de Burgos 9600,40.4895515441895,-3.67223381996155,A,http://www.crtm.es,0,,Europe/Madrid,0
par_8_3602,3602,AV.BURGOS Nº 93,Avda de Burgos 10100,40.4933738708496,-3.67044281959534,A,http://www.crtm.es,0,,Europe/Madrid,0
par_8_50000,50000,AV.BURGOS-CENTRO FINANCIERO,Avda de Burgos 135,40.4987258911133,-3.66366314888,A,http://www.crtm.es,0,,Europe/Madrid,0
est_90_21,21,Intercambiador de Plaza de Castilla,Paseo de la Castellana 189,40.4669,-3.6892,A,http://www.crtm.es,1,,Europe/Madrid,0
par_8_06780,06780,MARQUESA VIUDA DE ALDAMA-TRVA.DEL CAÑÓN,Calle de la Marquesa Viuda de Aldama SN,40.5422172546387,-3.63090896606445,B1,http://www.crtm.es,0,,Europe/Madrid,2
par_8_06782,06782,REAL-CARLOS RUIZ,Calle   Carlos Ruiz 2,40.5447463989258,-3.628098487854,B1,http://www.crtm.es,0,,Europe/Madrid,2
par_8_06783,06783,REAL-HIGUERAS,Calle del Real 36,40.5466842651367,-3.62608528137207,B1,http://www.crtm.es,0,,Europe/Madrid,2
par_8_06786,06786,REAL-AYUNTAMIENTO,Calle del Real 25,40.5465660095215,-3.62637948989868,B1,http://www.crtm.es,0,,Europe/Madrid,2
par_8_06790,06790,REAL-SACRAMENTO,Calle del Real 3,40.5446243286133,-3.62851071357727,B1,http://www.crtm.es,0,,Europe/Madrid,2
par_8_09828,09828,ISLA GRACIOSA-ANTENA 3,Calle de la Isla Graciosa 14,40.5576553344727,-3.61469483375549,B1,http://www.crtm.es,0,,Europe/Madrid,2
par_8_10476,10476,REAL-HONTANILLAS,Calle del Real 87,40.5495834350586,-3.62306523323059,B1,http://www.crtm.es,0,,Europe/Madrid,2
par_8_11888,11888,ISLA GRACIOSA-ISLA DE HIERRO,Calle de la Isla Graciosa 4,40.5546112060547,-3.61753702163696,B1,http://www.crtm.es,0,,Europe/Madrid,2
par_8_11981,11981,ISLA GRACIOSA-ANTENA 3,Calle de la Isla Graciosa 10,40.5566596984863,-3.61580777168274,B1,http://www.crtm.es,0,,Europe/Madrid,2
par_8_11982,11982,ISLA GRACIOSA-ISLA DEL HIERRO,Calle de la Isla Graciosa 7,40.5544204711914,-3.61784243583679,B1,http://www.crtm.es,0,,Europe/Madrid,2
par_8_11983,11983,REAL-CENTRO DE SALUD,Calle del Real 93,40.5502624511719,-3.62251663208008,B1,http://www.crtm.es,0,,Europe/Madrid,2
par_8_17404,17404,MARÍA MOLINER-HOSPITAL INFANTA SOFÍA,Calle   María Moliner 12,40.559928894043,-3.6120343208313,B1,http://www.crtm.es,0,,Europe/Madrid,2
par_8_17406,17406,PZA.CONCHA ESPINA-MARÍA MOLINER,Plaza   Concha Espina 3,40.5619163513184,-3.6145920753479,B1,http://www.crtm.es,0,,Europe/Madrid,2
par_8_17407,17407,PZA.CONCHA ESPINA-FRANCISCO AYALA,Plaza   Concha Espina 4,40.561653137207,-3.61495590209961,B1,http://www.crtm.es,0,,Europe/Madrid,2
par_8_17410,17410,JOSÉ HIERRO-MERCÉ RODODERA,Calle  José Hierro 7,40.5643844604492,-3.61307883262634,B1,http://www.crtm.es,0,,Europe/Madrid,2
par_8_17411,17411,JOSÉ HIERRO-JULIO REY PASTOR,Calle  José Hierro 7,40.5661582946777,-3.61127591133118,B1,http://www.crtm.es,0,,Europe/Madrid,2
par_8_17474,17474,PºEUROPA-HOSPITAL INFANTA SOFÍA,Paseo   Europa 11,40.5593185424805,-3.61180424690247,B1,http://www.crtm.es,0,,Europe/Madrid,2
par_8_19286,19286,SALVADOR MADARIAGA-C.C.ALEGRA,Calle   Salvador de Madariaga 1,40.5669898986816,-3.60923981666565,B1,http://www.crtm.es,0,,Europe/Madrid,0
par_8_19287,19287,ALONSO ZAMORA VICENTE-PºGREGORIO MARAÑÓN,Calle   Alonso Zamora Vicente 17,40.5651016235352,-3.61008501052856,B1,http://www.crtm.es,0,,Europe/Madrid,0
par_8_19289,19289,ROSA CHACEL-FRANCISCO AYALA,Calle   Rosa Chacel 5,40.563648223877,-3.61252880096436,B1,http://www.crtm.es,0,,Europe/Madrid,0
par_8_06771,06771,MARQUÉS VALDAVIA-MANUEL DE FALLA,Calle del Marqués de la Valdavia 110,40.5463714599609,-3.64989066123962,B1,http://www.crtm.es,0,,Europe/Madrid,2
par_8_06772,06772,MARQUÉS VALDAVIA-AV.DOCTOR SEVERO OCHOA,Calle del Marqués de la Valdavia 91,40.5461845397949,-3.64981818199158,B1,http://www.crtm.es,0,,Europe/Madrid,2
par_8_06804,06804,PZA.UNIVERSIDAD POPULAR-EST.BAUNATAL,Plaza de la Universidad Popular 2,40.5547866821289,-3.63406252861023,B1,http://www.crtm.es,0,,Europe/Madrid,2
par_8_07364,07364,MARQUÉS VALDAVIA-RUPERTO CHAPÍ,Calle del Marqués de la Valdavia 94,40.5461883544922,-3.64602732658386,B1,http://www.crtm.es,0,,Europe/Madrid,2
par_8_07365,07365,MARQUÉS VALDAVIA-JACINTO BENAVENTE,Calle del Marqués de la Valdavia 83,40.5460166931152,-3.64615535736084,B1,http://www.crtm.es,0,,Europe/Madrid,2
par_8_07527,07527,MANUEL DE FALLA-PARQUE EXTREMADURA,Calle  Manuel de Falla SN,40.552059173584,-3.64443016052246,B1,http://www.crtm.es,0,,Europe/Madrid,2
par_8_07528,07528,MANUEL DE FALLA-PARQUE EXTREMADURA,Calle  Manuel de Falla 42,40.5518379211426,-3.64430999755859,B1,http://www.crtm.es,0,,Europe/Madrid,2
par_8_08357,08357,MANUEL DE FALLA-CENTRO DE MAYORES,Calle   Manuel de Falla 5,40.5485305786133,-3.64936828613281,B1,http://www.crtm.es,0,,Europe/Madrid,2
par_8_08358,08358,MANUEL DE FALLA-INSTITUTO,Calle de Manuel de Falla 50,40.5535697937012,-3.64018082618713,B1,http://www.crtm.es,0,,Europe/Madrid,2
par_8_08359,08359,AV.VALDELASFUENTES-AV.INDEPENDENCIA,Avda de Valdelasfuentes 23,40.5524520874023,-3.63582396507263,B1,http://www.crtm.es,0,,Europe/Madrid,2
par_8_08360,08360,AV.VALDELASFUENTES-AV.INDEPENDENCIA,Avda de Valdelasfuentes 32,40.5525398254395,-3.63573026657104,B1,http://www.crtm.es,0,,Europe/Madrid,2
par_8_08361,08361,MANUEL DE FALLA-INSTITUTO,Calle  Manuel de Falla 89,40.5535507202148,-3.64074754714966,B1,http://www.crtm.es,0,,Europe/Madrid,2
par_8_08362,08362,MANUEL DE FALLA-CENTRO DE MAYORES,Calle   Manuel de Falla 9,40.5491523742676,-3.64893746376038,B1,http://www.crtm.es,0,,Europe/Madrid,2
par_8_15312,15312,MANUEL DE FALLA-EST.MANUEL DE FALLA,Calle   Manuel de Falla 32,40.5502891540527,-3.64723587036133,B1,http://www.crtm.es,0,,Europe/Madrid,2
par_8_15313,15313,MANUEL DE FALLA-EST.MANUEL DE FALLA,Calle   Manuel de Falla 59,40.5503997802734,-3.64672899246216,B1,http://www.crtm.es,0,,Europe/Madrid,2
par_8_06635,06635,CTRA.FUENCARRAL-SAN RAFAEL,Ctra de Fuencarral 2800,40.5230979919434,-3.65894508361816,B1,http://www.crtm.es,0,,Europe/Madrid,2
par_8_06681,06681,FCO.CHICO MENDES-C.C.PLANET ALCOBENDAS,Calle de Francisco Chico Mendes 2,40.5256996154785,-3.65263080596924,B1,http://www.crtm.es,0,,Europe/Madrid,2
par_8_06682,06682,YUCA-CTRA.N1,Calle de Yuca sn,40.5261039733887,-3.64777064323425,B1,http://www.crtm.es,0,,Europe/Madrid,2
par_8_06785,06785,AV.PLAZA DE TOROS-EST.REYES CATÓLICOS,Avda de la Plaza de Toros SN,40.5506057739258,-3.62373614311218,B1,http://www.crtm.es,0,,Europe/Madrid,2
par_8_06792,06792,AV.COLMENAR VIEJO-NTRA.SRA.CARMEN,Avda de Colmenar Viejo 27,40.5472412109375,-3.63149952888489,B1,http://www.crtm.es,0,,Europe/Madrid,2
par_8_06795,06795,AV.SIERRA-CERVANTES,Avda de la Sierra 10,40.5504302978516,-3.63275766372681,B1,http://www.crtm.es,0,,Europe/Madrid,2
par_8_06796,06796,AV.BAUNATAL-PZA.ANDRÉS CABALLERO,Avda de Baunatal 2,40.5527076721191,-3.6302752494812,B1,http://www.crtm.es,0,,Europe/Madrid,2
par_8_06797,06797,AV.BAUNATAL-PZA.ANDRÉS CABALLERO,Avda de Baunatal 1 A,40.5526695251465,-3.63071179389954,B1,http://www.crtm.es,0,,Europe/Madrid,2
par_8_06842,06842,CTRA.M603-C.C.RÍO NORTE,Ctra de Fuencarral 3900,40.5301132202148,-3.64933228492737,B1,http://www.crtm.es,0,,Europe/Madrid,2
par_8_06843,06843,CTRA.M603-POL.IND.CALABOZOS,Ctra de Fuencarral 78,40.5261192321777,-3.65500783920288,B1,http://www.crtm.es,0,,Europe/Madrid,2
par_8_11226,11226,PZA.PARÍS-P.EMPRESARIAL LA MORALEJA,Plaza de París 1,40.520133972168,-3.65866827964783,B1,http://www.crtm.es,0,,Europe/Madrid,2
par_8_16811,16811,AV.EUROPA-P.EMPRESARIAL LA MORALEJA,Avda de Europa 8,40.5207099914551,-3.65894532203674,B1,http://www.crtm.es,0,,Europe/Madrid,2
par_8_16813,16813,RONDA COMUNICACIÓN-EST.RONDA DE LA COM.,Ronda de la Comunicación 16,40.5176582336426,-3.66481781005859,A,http://www.crtm.es,0,,Europe/Madrid,2
par_8_16814,16814,PÓRTICO DE LA GLORIA-RONDA COMUNICACIÓN,Calle del Pórtico de la Gloria 2,40.5179634094238,-3.66474986076355,A,http://www.crtm.es,0,,Europe/Madrid,2
par_8_1917,1917,AGUSTÍN DE FOXÁ-CHAMARTÍN,Calle de Agustín de Foxá 40,40.4718055725098,-3.68260288238525,A,http://www.crtm.es,0,est_90_25,,0
par_8_2654,2654,Pº CASTELLANA-MANUEL CALDEIRO,Calle de Manuel Caldeiro 1,40.4768409729004,-3.6858274936676,A,http://www.crtm.es,0,,Europe/Madrid,0
par_8_2655,2655,Pº CASTELLANA-VIEJAS,Paseo de la Castellana 298,40.4794654846191,-3.68513441085815,A,http://www.crtm.es,0,,Europe/Madrid,0
par_8_2657,2657,MAURICIO LEGENDRE-VIEJAS,Calle de Mauricio Legendre 59,40.480052947998,-3.68374824523926,A,http://www.crtm.es,0,,Europe/Madrid,0
par_8_2658,2658,MAURICIO LEGENDRE-M.CALDEIRO,Calle de Mauricio Legendre 45 A,40.4765777587891,-3.68444442749023,A,http://www.crtm.es,0,,Europe/Madrid,0
par_8_2659,2659,MAURICIO LEGENDRE-FCO.PALAU Y QUER,Calle de Mauricio Legendre 39,40.4742240905762,-3.68505764007568,A,http://www.crtm.es,0,,Europe/Madrid,0
par_8_2662,2662,LLANO CASTELLANO-FCO.SANCHA,Avda de Salas de los Infantes 1,40.4855003356934,-3.68403959274292,A,http://www.crtm.es,0,,Europe/Madrid,0
par_8_2663,2663,LLANO CASTELLANO-FCO.SANCHA,Avda del Llano Castellano 15,40.4864158630371,-3.68465042114258,A,http://www.crtm.es,0,,Europe/Madrid,0
par_8_2666,2666,LLANO CASTELLANO-VALDEGOVIA,Avda del Llano Castellano 51,40.4894638061523,-3.68547201156616,A,http://www.crtm.es,0,,Europe/Madrid,0
par_8_2667,2667,LLANO CASTELLANO-VALDEGOVIA,Avda del Llano Castellano 51,40.4893035888672,-3.68565917015076,A,http://www.crtm.es,0,,Europe/Madrid,0
par_8_2672,2672,NTRA.SRA.VALVERDE-ISLA SUMATRA,Calle de Nuestra Señora de Valverde 62,40.4951629638672,-3.68770146369934,A,http://www.crtm.es,0,,Europe/Madrid,0
par_8_2673,2673,NTRA.SRA.VALVERDE-ISLA SUMATRA,Calle de Nuestra Señora de Valverde 65,40.4951820373535,-3.68790221214294,A,http://www.crtm.es,0,,Europe/Madrid,0
par_8_3386,3386,NTRA.SRA.VALVERDE-ALONSO QUIJANO,Calle de Nuestra Señora de Valverde 193,40.5051689147949,-3.68534874916077,A,http://www.crtm.es,0,,Europe/Madrid,0
par_8_3399,3399,NTRA.SRA.VALVERDE-ALONSO QUIJANO,Calle de Nuestra Señora de Valverde 179,40.5043907165527,-3.68563580513,A,http://www.crtm.es,0,,Europe/Madrid,0
par_8_3881,3881,CTRA.FUENCARRAL A ALCOBENDAS S/N,Ctra de Fuencarral a Alcobendas 700,40.5131874084473,-3.6791033744812,A,http://www.crtm.es,0,,Europe/Madrid,0
par_8_3882,3882,CTRA.FUENCARRAL A ALCOBENDAS S/N,Ctra de Fuencarral a Alcobendas 800,40.5137786865234,-3.67781090736389,A,http://www.crtm.es,0,,Europe/Madrid,0
par_8_3984,3984,C.FUENCARRAL ALCOBENDAS-ISABEL COLBRAND,Calle de Isabel Colbrand 1,40.5157814025879,-3.67127990722656,A,http://www.crtm.es,0,,Europe/Madrid,0
par_8_3985,3985,CTRA.FUENCARRAL A ALCOBENDAS-M40,Ctra de Fuencarral a Alcobendas 1600,40.5167655944824,-3.66969609260559,A,http://www.crtm.es,0,,Europe/Madrid,0
est_90_25,25,Chamartín,Calle de Agustín de Foxá 40,40.4721,-3.68269,A,http://www.crtm.es,1,,Europe/Madrid,0
par_8_06688,06688,CTRA.A1-EL ENCINAR DE LOS REYES,Ctra de Irún 12700,40.513240814209,-3.6555552482605,B1,http://www.crtm.es,0,,Europe/Madrid,2
par_8_06791,06791,AV.COLMENAR VIEJO-RÍO DUERO,Avda de Colmenar Viejo 28,40.5469551086426,-3.63103628158569,B1,http://www.crtm.es,0,,Europe/Madrid,2
par_8_06794,06794,AV.SIERRA-NAVAS DE TOLOSA,Avda de la Sierra 23,40.5503768920898,-3.63261556625366,B1,http://www.crtm.es,0,,Europe/Madrid,2
par_8_06805,06805,AV.ARAGÓN-INSTITUTO,Avda de Aragón 3 B,40.558464050293,-3.63004565238953,B1,http://www.crtm.es,0,,Europe/Madrid,2
par_8_06806,06806,AV.ARAGÓN-PARQUE VELÓDROMO,Avda de Aragón 2,40.5583724975586,-3.62892270088196,B1,http://www.crtm.es,0,,Europe/Madrid,2
par_8_10446,10446,AV.ROSA LUXEMBURGO-AV.MIGUEL HDEZ.,Avda de Rosa Luxemburgo 13,40.5574989318848,-3.63673400878906,B1,http://www.crtm.es,0,,Europe/Madrid,2
par_8_10447,10447,AV.ROSA LUXEMBURGO-CALDERÓN DE LA BARCA,Avda de Rosa Luxemburgo 13,40.5575637817383,-3.63634467124939,B1,http://www.crtm.es,0,,Europe/Madrid,2
par_8_10448,10448,AV.ARAGÓN-CENTRO DE SALUD,Avda de Aragón SN,40.5590133666992,-3.63312196731567,B1,http://www.crtm.es,0,,Europe/Madrid,2
par_8_10449,10449,AV.ARAGÓN-CENTRO DE SALUD,Avda de Aragón 15,40.5588340759277,-3.63309669494629,B1,http://www.crtm.es,0,,Europe/Madrid,2
par_8_10487,10487,AV.TENERIFE-PºJUANA DE CASTILLA,Avda de Tenerife 6,40.5595512390137,-3.623783826828,B1,http://www.crtm.es,0,,Europe/Madrid,2
par_8_10488,10488,AV.ARAGÓN-PZA.ABOGADOS DE ATOCHA,Avda de Aragón 2,40.5587463378906,-3.62792229652405,B1,http://www.crtm.es,0,,Europe/Madrid,2
par_8_11598,11598,AV.ROSA LUXEMBURGO-EST.BAUNATAL,Avda de Rosa Luxemburgo 1,40.555004119873,-3.63524556159973,B1,http://www.crtm.es,0,,Europe/Madrid,2
par_8_15850,15850,AV.TENERIFE-GOMERA,Avda de Tenerife 6,40.5594940185547,-3.62303900718689,B1,http://www.crtm.es,0,,Europe/Madrid,2
par_8_16573,16573,AV.TENERIFE-MARÍA PACHECO,Avda de Tenerife 20 A,40.5610237121582,-3.6200647354126,B1,http://www.crtm.es,0,,Europe/Madrid,2
par_8_17408,17408,AV.QUIÑONES-CERRO DEL BAILE,Avda de los Quiñones 4,40.5629539489746,-3.61808609962463,B1,http://www.crtm.es,0,,Europe/Madrid,2
par_8_17409,17409,AV.TENERIFE-BEATRIZ GALINDO,Avda de Tenerife 20 A,40.5608978271484,-3.61980366706848,B1,http://www.crtm.es,0,,Europe/Madrid,2
par_8_06808,06808,AZALEA Nº65,Calle de la Azalea 203,40.5208168029785,-3.64945507049561,B1,http://www.crtm.es,0,,Europe/Madrid,2
par_8_06809,06809,JAZMÍN-IRIS,Calle  Jazmín 8,40.5241394042969,-3.64513063430786,B1,http://www.crtm.es,0,,Europe/Madrid,2
par_8_06810,06810,JAZMÍN-BEGONIA,Calle de Begonia 258,40.5229377746582,-3.64226222038269,B1,http://www.crtm.es,0,,Europe/Madrid,2
par_8_06811,06811,BEGONIA-CEMENTERIO,Calle de Begonia 277,40.5248641967773,-3.6392228603363,B1,http://www.crtm.es,0,,Europe/Madrid,2
par_8_06812,06812,AZALEA-BEGONIA,Calle de la Azalea 532,40.5277404785156,-3.637526512146,B1,http://www.crtm.es,0,,Europe/Madrid,2
par_8_06813,06813,DALIA-AZALEA,Calle   Dalia 385,40.5247993469238,-3.63492488861084,B1,http://www.crtm.es,0,,Europe/Madrid,2
par_8_06814,06814,DALIA-LAUREL,Calle  Dalia 62,40.5236625671387,-3.63860940933228,B1,http://www.crtm.es,0,,Europe/Madrid,2
par_8_06815,06815,DALIA-JAZMÍN,Calle   Dalia 255,40.5213623046875,-3.64199924468994,B1,http://www.crtm.es,0,,Europe/Madrid,2
par_8_06817,06817,AZALEA-PZA.DEL SOTO,Calle de la Azalea 1,40.5184326171875,-3.65049433708191,B1,http://www.crtm.es,0,,Europe/Madrid,2
par_8_06818,06818,AZALEA-ZARZAMORA,Calle de la Azalea 227,40.5223731994629,-3.64837217330933,B1,http://www.crtm.es,0,,Europe/Madrid,2
par_8_06819,06819,AZALEA-CALÉNDULA,Calle de la Azalea 84,40.5238037109375,-3.64722895622253,B1,http://www.crtm.es,0,,Europe/Madrid,2
par_8_06839,06839,CAMINO NUEVO-PZA.SOTO,Calle   Camino Nuevo 4,40.5179023742676,-3.64868330955505,B1,http://www.crtm.es,0,,Europe/Madrid,2
par_8_06862,06862,DALIA-KERRIA,Calle   Dalia 23,40.5192794799805,-3.64602851867676,B1,http://www.crtm.es,0,,Europe/Madrid,2
par_8_11277,11277,BEGONIA-AZALEA,Calle de Begonia 279,40.5275573730469,-3.63793802261353,B1,http://www.crtm.es,0,,Europe/Madrid,2
par_8_11335,11335,NARDO-COMPLEJO DEPORTIVO,Calle del Nardo SN,40.5294075012207,-3.63709378242493,B1,http://www.crtm.es,0,,Europe/Madrid,2
par_8_11336,11336,NARDO-GARDENIA,Calle del Nardo 12,40.5293922424316,-3.63698720932007,B1,http://www.crtm.es,0,,Europe/Madrid,2
par_8_12240,12240,NARDO-CENTRO CÍVICO,Calle del Nardo SN,40.5311508178711,-3.63650798797607,B1,http://www.crtm.es,0,,Europe/Madrid,2
par_8_12343,12343,PºLOS PARQUES-ESTAFETA,Paseo de los Parques 6,40.5129585266113,-3.6516809463501,B1,http://www.crtm.es,0,,Europe/Madrid,2
par_8_12344,12344,PºPARQUES-CºEL ENCINAR,Paseo de los Parques 7,40.512767791748,-3.6501681804657,B1,http://www.crtm.es,0,,Europe/Madrid,2
par_8_12345,12345,PºPARQUES Nº17,Paseo de los Parques 19,40.5113067626953,-3.64736843109131,B1,http://www.crtm.es,0,,Europe/Madrid,2
par_8_12346,12346,PºDE LOS PARQUES Nº17,Paseo de los Parques 20,40.511100769043,-3.64709496498108,B1,http://www.crtm.es,0,,Europe/Madrid,2
par_8_12347,12347,PºLOS PARQUES-VEREDA DE PALACIO,Paseo de los Parques 25,40.5095443725586,-3.64345645904541,B1,http://www.crtm.es,0,,Europe/Madrid,2
par_8_12351,12351,CºHUERTA-DÁMASO ALONSO,Cmno de la Huerta 223,40.5072593688965,-3.63791084289551,B1,http://www.crtm.es,0,,Europe/Madrid,2
par_8_13132,13132,PºPARQUES-CTRA.A1,Paseo de los Parques SN,40.5134811401367,-3.65497922897339,B1,http://www.crtm.es,0,,Europe/Madrid,2
par_8_16893,16893,PADRES DOMINICOS-CONVENTO,Calle de los Padres Dominicos 2,40.5016250610352,-3.65626835823059,A,http://www.crtm.es,0,,Europe/Madrid,2
par_8_16894,16894,PADRES DOMINICOS-CONVENTO,Calle de los Padres Dominicos 2,40.5016212463379,-3.65677571296692,A,http://www.crtm.es,0,,Europe/Madrid,2
par_8_16895,16895,PADRES DOMINICOS-M.POMBO ANGULO,Calle de los Padres Dominicos 7,40.5048751831055,-3.65539121627808,A,http://www.crtm.es,0,,Europe/Madrid,2
par_8_16896,16896,PADRES DOMINICOS-M.POMBO ANGULO,Calle de los Padres Dominicos 7,40.504997253418,-3.65556955337524,A,http://www.crtm.es,0,,Europe/Madrid,2
par_8_16897,16897,MANUEL POMBO ANGULO-COLEGIO,Calle de Manuel Pombo Angulo 30,40.5059967041016,-3.65243983268738,A,http://www.crtm.es,0,,Europe/Madrid,2
par_8_16898,16898,MANUEL POMBO ANGULO-COLEGIO,Calle de Manuel Pombo Angulo 30,40.5059432983398,-3.65259265899658,A,http://www.crtm.es,0,,Europe/Madrid,2
par_8_16925,16925,PºLOS PARQUES-VEREDA DEL PALACIO,Paseo de los Parques 30,40.5093955993652,-3.64277052879334,B1,http://www.crtm.es,0,,Europe/Madrid,2
par_8_16926,16926,PºPARQUES-ENCINAR DE LOS REYES,Paseo de los Parques 36,40.5093116760254,-3.63810729980469,B1,http://www.crtm.es,0,,Europe/Madrid,2
par_8_17457,17457,VEREDA DE PALACIO-CºHUERTA,Calle   Vereda de Palacio 6,40.5080604553223,-3.64445734024048,B1,http://www.crtm.es,0,,Europe/Madrid,2
par_8_17459,17459,PºPARQUES-CAMINO DEL ENCINAR,Paseo de los Parques 38,40.5095634460449,-3.6353714466095,B1,http://www.crtm.es,0,,Europe/Madrid,2
par_8_17460,17460,CºDEL CURA-URB.OTERO DEL ENCINAR,Cmno   del Cura 99,40.5083808898926,-3.63589143753052,B1,http://www.crtm.es,0,,Europe/Madrid,2
par_8_18591,18591,CºHUERTA-ENRIQUE LAFUENTE FERRARI,Cmno de la Huerta 143 C,40.5066719055176,-3.64174127578735,B1,http://www.crtm.es,0,,Europe/Madrid,0
par_8_3780,3780,MARIA DE PORTUGAL-FCO. PI Y MARGALL,Calle de María de Portugal 1,40.4948387145996,-3.66466331481934,A,http://www.crtm.es,0,,Europe/Madrid,0
par_8_3781,3781,MARIA DE PORTUGAL-FCO. PI Y MARGALL,Calle de María de Portugal 1,40.4949913024902,-3.66499519348145,A,http://www.crtm.es,0,,Europe/Madrid,0
par_8_3782,3782,MARIA PORTUGAL-LEONOR AUSTRIA,Calle de María de Portugal 7 A,40.4975242614746,-3.6626718044281,A,http://www.crtm.es,0,,Europe/Madrid,0
par_8_3783,3783,MARIA PORTUGAL-LEONOR AUSTRIA,Calle de María de Portugal 7 A,40.4968795776367,-3.66375112533569,A,http://www.crtm.es,0,,Europe/Madrid,0
par_8_3784,3784,MARIA PORTUGAL-MARGARITA PARMA,Calle de María de Portugal 9,40.4989852905273,-3.66083335876465,A,http://www.crtm.es,0,,Europe/Madrid,0
par_8_3785,3785,MARIA PORTUGAL-MARGARITA PARMA,Calle de María de Portugal 18,40.498722076416,-3.66175127029419,A,http://www.crtm.es,0,,Europe/Madrid,0
par_8_50002,50002,AGATHA CHRISTIE-GTA.CUSTODIO MORENO,Calle de Agatha Christie 1,40.5007476806641,-3.63571310043335,A,http://www.crtm.es,0,,Europe/Madrid,0
par_8_11590,11590,AV.CAMINO DE LO CORTAO-AV.MATAPIÑONERA,Avda de Camino de lo Cortao 2,40.5492324829102,-3.61948347091675,B1,http://www.crtm.es,0,,Europe/Madrid,2
par_8_11592,11592,AV.CAMINO DE LO CORTAO-AV.FUENTE NUEVA,Avda de Camino de lo Cortao 12,40.5502815246582,-3.61560773849487,B1,http://www.crtm.es,0,,Europe/Madrid,2
par_8_12216,12216,AV.EINSTEIN-MEGAPARK,Avda  Einstein SN,40.5435829162598,-3.60984253883362,B1,http://www.crtm.es,0,,Europe/Madrid,2
par_8_12217,12217,AV.MATAPIÑONERA-AV.CERRO DEL ÁGUILA,Avda  Matapiñonera 24,40.5457305908203,-3.61737275123596,B1,http://www.crtm.es,0,,Europe/Madrid,2
par_8_12218,12218,AV.MATAPIÑONERA-AV.CAMINO DE LO CORTAO,Avda   Matapiñonera 6,40.5483512878418,-3.61938095092773,B1,http://www.crtm.es,0,,Europe/Madrid,2
par_8_12219,12219,AV.FUENTE NUEVA Nº14,Avda de la Fuente Nueva 16,40.5478706359863,-3.61292839050293,B1,http://www.crtm.es,0,,Europe/Madrid,2
par_8_12820,12820,AV.MATAPIÑONERA-PLAZA NORTE,Avda  Matapiñonera 24,40.5431594848633,-3.61633372306824,B1,http://www.crtm.es,0,,Europe/Madrid,2
par_8_15392,15392,AV.MATAPIÑONERA-CºJUNCAL,Avda  Matapiñonera 24,40.540699005127,-3.61807060241699,B1,http://www.crtm.es,0,,Europe/Madrid,2
par_8_15684,15684,CºJUNCAL-PLAZA NORTE,Cmno del Juncal 2,40.5401840209961,-3.61198449134827,B1,http://www.crtm.es,0,,Europe/Madrid,2
par_8_15685,15685,CºJUNCAL-PLAZA NORTE,Cmno del Juncal 4,40.5402908325195,-3.61540985107422,B1,http://www.crtm.es,0,,Europe/Madrid,2
par_8_06773,06773,PºCHOPERA-CENTRO CULTURAL,Paseo de la Chopera 94,40.543342590332,-3.64372062683105,B1,http://www.crtm.es,0,,Europe/Madrid,2
par_8_06885,06885,PºCHOPERA-CENTRO SALUD VALDAVIA,Paseo de la Chopera 108,40.5446510314941,-3.64672112464905,B1,http://www.crtm.es,0,,Europe/Madrid,2
par_8_08694,08694,PºCHOPERA-EDUCACIÓN INFANTIL ESPECIAL,Paseo de la Chopera 107,40.5447425842285,-3.65008759498596,B1,http://www.crtm.es,0,,Europe/Madrid,2
par_8_08695,08695,PºCHOPERA-EDUCACIÓN INFANTIL ESPECIAL,Paseo de la Chopera 107,40.5449371337891,-3.6501247882843,B1,http://www.crtm.es,0,,Europe/Madrid,2
par_8_09090,09090,PºCHOPERA-CENTRO SALUD VALDAVIA,Paseo de la Chopera 89,40.5444526672363,-3.64677810668945,B1,http://www.crtm.es,0,,Europe/Madrid,2
par_8_11227,11227,PºCHOPERA-CENTRO SALUD LA CHOPERA,Paseo de la Chopera 13,40.5398368835449,-3.63938879966736,B1,http://www.crtm.es,0,,Europe/Madrid,2
par_8_11228,11228,PºCHOPERA-CENTRO DE SALUD,Paseo de la Chopera 46,40.540340423584,-3.63958263397217,B1,http://www.crtm.es,0,,Europe/Madrid,2
par_8_11229,11229,PºCHOPERA-PINTOR SOROLLA,Paseo de la Chopera 29,40.5412139892578,-3.64138579368591,B1,http://www.crtm.es,0,,Europe/Madrid,2
par_8_11230,11230,PºCHOPERA-CÁDIZ,Paseo de la Chopera 64,40.5414390563965,-3.64132881164551,B1,http://www.crtm.es,0,,Europe/Madrid,2
par_8_11231,11231,PºCHOPERA-AV.CAMILO JOSÉ CELA,Paseo de la Chopera 253,40.5449714660645,-3.65688014030457,B1,http://www.crtm.es,0,,Europe/Madrid,2
par_8_11232,11232,PºCHOPERA-AV.CAMILO JOSÉ CELA,Paseo de la Chopera 178,40.5451965332031,-3.6568706035614,B1,http://www.crtm.es,0,,Europe/Madrid,2
par_8_11233,11233,PºCHOPERA-CENTRO CULTURAL,Paseo de la Chopera 63,40.5431365966797,-3.64391946792603,B1,http://www.crtm.es,0,,Europe/Madrid,2
par_8_11330,11330,MARQUÉS VALDAVIA Nº147,Calle del Marqués de la Valdavia 159,40.5480079650879,-3.66038203239441,B1,http://www.crtm.es,0,,Europe/Madrid,2
par_8_11588,11588,AV.VALDELAPARRA-PºCHOPERA,Avda de Valdelaparra 2800,40.5444793701172,-3.66154003143311,B1,http://www.crtm.es,0,,Europe/Madrid,2
par_8_11625,11625,AV.EUROPA-PZA.PARÍS,Avda de Europa 11,40.5197448730469,-3.65740132331848,B1,http://www.crtm.es,0,,Europe/Madrid,2
par_8_11626,11626,AV.EUROPA-C.C.MORALEJA GREEN,Avda de Europa 16,40.5174903869629,-3.6559271812439,B1,http://www.crtm.es,0,,Europe/Madrid,2
par_8_11627,11627,AV.EUROPA-C.C.MORALEJA GREEN,Avda de Europa 16,40.5175285339355,-3.65572690963745,B1,http://www.crtm.es,0,,Europe/Madrid,2
par_8_11628,11628,AV.EUROPA-PZA.ROMA,Avda de Europa 20 B,40.5147094726563,-3.65746998786926,B1,http://www.crtm.es,0,,Europe/Madrid,2
par_8_11629,11629,AV.EUROPA-PZA.ROMA,Avda de Europa 19 Z,40.5146102905273,-3.65729212760925,B1,http://www.crtm.es,0,,Europe/Madrid,2
par_8_12725,12725,AV.CAMILO J.CELA-MARQUÉS DE LA VALDAVIA,Avda de Camilo José Cela 3,40.5466651916504,-3.65715646743774,B1,http://www.crtm.es,0,,Europe/Madrid,2
par_8_12927,12927,AV.CAMILO J.CELA-GABRIEL GªMÁRQUEZ,Avda de Camilo José Cela 28,40.5417556762695,-3.6589035987854,B1,http://www.crtm.es,0,,Europe/Madrid,2
par_8_17027,17027,AV.VALDELAPARRA-INSTITUTO,Avda de Valdelaparra 2500,40.542163848877,-3.66097402572632,B1,http://www.crtm.es,0,,Europe/Madrid,2
par_8_17028,17028,AV.VALDELAPARRA-POLICÍA LOCAL,Avda de Valdelaparra 118,40.5471496582031,-3.66213321685791,B1,http://www.crtm.es,0,,Europe/Madrid,2
par_8_06803,06803,CTRA.M603-C.C.PLANET ALCOBENDAS,Calle de Francisco Chico Mendes 2,40.5263786315918,-3.65379428863525,B1,http://www.crtm.es,0,,Europe/Madrid,2
par_8_06861,06861,CTRA.M603-C.C.RÍO NORTE,Ctra de Fuencarral 4000,40.5303039550781,-3.64798808097839,B1,http://www.crtm.es,0,,Europe/Madrid,2
par_8_07373,07373,MARQUÉS VALDAVIA-CAMILO JOSÉ CELA,Calle del Marqués de la Valdavia 123,40.5471267700195,-3.65675950050354,B1,http://www.crtm.es,0,,Europe/Madrid,2
par_8_12713,12713,AV.VALDELAPARRA-MUSEO DE LA CIENCIA,Avda de Valdelaparra 500,40.5359878540039,-3.6415011882782,B1,http://www.crtm.es,0,,Europe/Madrid,2
par_8_12714,12714,AV.VALDELAPARRA-MUSEO DE LA CIENCIA,Avda de Valdelaparra 4,40.5362663269043,-3.64183449745178,B1,http://www.crtm.es,0,,Europe/Madrid,2
par_8_12715,12715,AV.VALDELAPARRA-PARQUE ANDALUCÍA,Avda de Valdelaparra 1100,40.539306640625,-3.64740180969238,B1,http://www.crtm.es,0,,Europe/Madrid,2
par_8_12716,12716,AV.VALDELAPARRA-PARQUE ANDALUCÍA,Avda de Valdelaparra 25,40.5389213562012,-3.64690208435059,B1,http://www.crtm.es,0,,Europe/Madrid,2
par_8_12717,12717,AV.VALDELAPARRA-DR.SEVERO OCHOA,Avda de Valdelaparra 1700,40.5399436950684,-3.65436315536499,B1,http://www.crtm.es,0,,Europe/Madrid,2
par_8_12718,12718,AV.VALDELAPARRA-VALGRANDE,Avda de Valdelaparra 1700,40.539737701416,-3.65416026115417,B1,http://www.crtm.es,0,,Europe/Madrid,2
par_8_12719,12719,AV.DR.SEVERO OCHOA-RAMÓN Y CAJAL,Avda del Doctor Severo Ochoa 21,40.5427169799805,-3.65144968032837,B1,http://www.crtm.es,0,,Europe/Madrid,2
par_8_12720,12720,AV.DR.SEVERO OCHOA-RAMÓN Y CAJAL,Avda del Doctor Severo Ochoa 32,40.5420722961426,-3.65214014053345,B1,http://www.crtm.es,0,,Europe/Madrid,2
par_8_12721,12721,AV.DR.SEVERO OCHOA-PABELLÓN DEPORTIVO,Avda del Doctor Severo Ochoa 3,40.5455322265625,-3.65052032470703,B1,http://www.crtm.es,0,,Europe/Madrid,2
par_8_12722,12722,AV.DR.SEVERO OCHOA-PºCHOPERA,Avda del Doctor Severo Ochoa 5,40.544376373291,-3.65094614028931,B1,http://www.crtm.es,0,,Europe/Madrid,2
par_8_12723,12723,MARQUÉS VALDAVIA-EST.VALDELASFUENTES,Calle del Marqués de la Valdavia 138,40.5469703674316,-3.65431332588196,B1,http://www.crtm.es,0,,Europe/Madrid,2
par_8_12724,12724,MARQUÉS VALDAVIA-EST.VALDELASFUENTES,Calle del Marqués de la Valdavia 105,40.5466423034668,-3.65350723266602,B1,http://www.crtm.es,0,,Europe/Madrid,2
par_8_15306,15306,AV.MIGUEL CERVANTES-DOLORES IBÁRRURI,Avda   Miguel de Cervantes 5,40.5505332946777,-3.65040349960327,B1,http://www.crtm.es,0,,Europe/Madrid,2
par_8_15676,15676,DOLORES IBÁRRURI-TERESA DE CALCUTA,Calle  Dolores Ibárruri 16,40.5503578186035,-3.65444087982178,B1,http://www.crtm.es,0,,Europe/Madrid,2
par_8_15677,15677,AV.PABLO IGLESIAS-CARLOS MUÑOZ RUIZ,Avda   Pablo Iglesias 16,40.5531120300293,-3.65646362304688,B1,http://www.crtm.es,0,,Europe/Madrid,2
par_8_15678,15678,FCO.LARGO CABALLERO-PºOCHO DE MARZO,Calle   Francisco Largo Caballero 42,40.5536499023438,-3.65323281288147,B1,http://www.crtm.es,0,,Europe/Madrid,2
par_8_15679,15679,AV.MIGUEL CERVANTES-FCO.LARGO CABALLERO,Avda   Miguel de Cervantes 17,40.5530738830566,-3.65025091171265,B1,http://www.crtm.es,0,,Europe/Madrid,2
par_8_17026,17026,AV.DR.SEVERO OCHOA-PARQUE DE GALICIA,Avda del Doctor Severo Ochoa 49,40.541130065918,-3.65479969978333,B1,http://www.crtm.es,0,,Europe/Madrid,2
par_8_18060,18060,FELICIDAD-AV.MAGIA,Avda de la Magia 7,40.5504570007324,-3.65751242637634,B1,http://www.crtm.es,0,,Europe/Madrid,0
par_8_18061,18061,PºFUENTE LUCHA-SUEÑOS,Paseo de Fuente Lucha 7,40.5510101318359,-3.65962028503418,B1,http://www.crtm.es,0,,Europe/Madrid,0
par_8_18062,18062,PºFUENTE LUCHA-IMAGINACIÓN,Paseo de Fuente Lucha 7,40.5531578063965,-3.65946412086487,B1,http://www.crtm.es,0,,Europe/Madrid,0
par_8_18063,18063,SUERTE-IMAGINACIÓN,Calle de la Suerte 4,40.5549240112305,-3.65903258323669,B1,http://www.crtm.es,0,,Europe/Madrid,0
par_8_18068,18068,AV.PABLO IGLESIAS-DR.ÁNGEL OLIVARES,Avda   Pablo Iglesias 6,40.5494842529297,-3.65698337554932,B1,http://www.crtm.es,0,,Europe/Madrid,0
par_8_18076,18076,AV.PABLO IGLESIAS-JOSÉ HIERRO,Avda   Pablo Iglesias 2,40.547794342041,-3.65682506561279,B1,http://www.crtm.es,0,,Europe/Madrid,0
par_8_19172,19172,RONDA COMUNICACIÓN-DISTRITO C,Ronda de la Comunicación 28,40.5130767822266,-3.65938997268677,A,http://www.crtm.es,0,,Europe/Madrid,0
par_8_06769,06769,AV.SIERRA-C.C.LA VIÑA,Avda de la Sierra 37,40.5481033325195,-3.63325548171997,B1,http://www.crtm.es,0,,Europe/Madrid,2
par_8_12730,12730,AV.SIERRA-EST.ALCOBENDAS S.SEB.REYES,Calle   Marruecos 6,40.5469818115234,-3.63435506820679,B1,http://www.crtm.es,0,,Europe/Madrid,2
par_8_129,129,AV.SAN LUIS-CONDADO DE TREVIÑO,Avda de San Luis 166,40.4796142578125,-3.6721818447113,A,http://www.crtm.es,0,,Europe/Madrid,0
par_8_130,130,AV.SAN LUIS-CONDADO DE TREVIÑO,Avda de San Luis 166,40.4794425964355,-3.67235708236694,A,http://www.crtm.es,0,,Europe/Madrid,0
par_8_131,131,AV.SAN LUIS-SERRANO GALVACHE,Avda de San Luis 158,40.4777755737305,-3.67084217071533,A,http://www.crtm.es,0,,Europe/Madrid,0
par_8_132,132,AV.SAN LUIS-SERRANO GALVACHE,Avda de San Luis 158,40.4772911071777,-3.67082548141479,A,http://www.crtm.es,0,,Europe/Madrid,0
par_8_133,133,ARTURO SORIA-AV.SAN LUIS,Calle de Arturo Soria 310,40.4767074584961,-3.66890859603882,A,http://www.crtm.es,0,,Europe/Madrid,0
par_8_134,134,ARTURO SORIA-AV.SAN LUIS,Calle del Jazmín 1,40.4767646789551,-3.66847252845764,A,http://www.crtm.es,0,,Europe/Madrid,0
par_8_137,137,ARTURO SORIA Nº 329,Calle de Arturo Soria 329,40.4803657531738,-3.66731667518616,A,http://www.crtm.es,0,,Europe/Madrid,0
par_8_138,138,ARTURO SORIA-DALIA,Calle de Arturo Soria 330,40.4801940917969,-3.6670081615448,A,http://www.crtm.es,0,,Europe/Madrid,0
par_8_139,139,ARTURO SORIA-AV.MANUEL AZAÑA,Calle de Arturo Soria 337,40.4824867248535,-3.66495442390442,A,http://www.crtm.es,0,,Europe/Madrid,0
par_8_140,140,ARTURO SORIA-AV.MANUEL AZAÑA,Calle de Arturo Soria 344,40.4824256896973,-3.66454076766968,A,http://www.crtm.es,0,,Europe/Madrid,0
par_8_16807,16807,AV.SAN LUIS-AV.BURGOS,Avda de San Luis 97,40.4808082580566,-3.6749427318573,A,http://www.crtm.es,0,,Europe/Madrid,2
par_8_16882,16882,AV.FCO.PI Y MARGALL-V.BLASCO IBÁÑEZ,Avda de Francisco Pi y Margall 75,40.4902801513672,-3.65843510627747,A,http://www.crtm.es,0,,Europe/Madrid,2
par_8_18973,18973,MANZANARES-HAYEDO DEL MONTEJO,Bulev del Manzanares SN,40.5614776611328,-3.64048075675964,B1,http://www.crtm.es,0,,Europe/Madrid,0
par_8_18974,18974,MANZANARES-PICOS DE EUROPA,Bulev del Manzanares SN,40.5610237121582,-3.64113783836365,B1,http://www.crtm.es,0,,Europe/Madrid,0
par_8_18975,18975,PICOS DE EUROPA-TABLAS DE DAIMIEL,Bulev  Picos de Europa 13,40.5578498840332,-3.64480471611023,B1,http://www.crtm.es,0,,Europe/Madrid,0
par_8_18976,18976,PICOS DE EUROPA-TIMANFAYA,Bulev  Picos de Europa 18,40.5574836730957,-3.64646649360657,B1,http://www.crtm.es,0,,Europe/Madrid,0
par_8_18977,18977,PICOS DE EUROPA-SIERRA ESPUÑA,Bulev  Picos de Europa 23,40.5559349060059,-3.64757370948792,B1,http://www.crtm.es,0,,Europe/Madrid,0
par_8_18978,18978,PICOS DE EUROPA-SIERRA ESPUÑA,Bulev  Picos de Europa 24,40.5565528869629,-3.648512840271,B1,http://www.crtm.es,0,,Europe/Madrid,0
par_8_18979,18979,PICOS DE EUROPA-SIERRA DE ALBARRACÍN,Bulev  Picos de Europa 34,40.5567016601563,-3.65247106552124,B1,http://www.crtm.es,0,,Europe/Madrid,0
par_8_3603,3603,FCO. PI Y MARGALL-MARIA DE PORTUGAL,Avda de Francisco Pi y Margall 89,40.4938125610352,-3.66474747657776,A,http://www.crtm.es,0,,Europe/Madrid,0
par_8_3604,3604,FCO. PI Y MARGALL-MARIA DE PORTUGAL,Avda de Francisco Pi y Margall 89,40.4941711425781,-3.6645622253418,A,http://www.crtm.es,0,,Europe/Madrid,0
par_8_3605,3605,FCO. PI Y MARGALL-ISABEL VALOIS,Avda de Francisco Pi y Margall 81,40.492115020752,-3.66204047203064,A,http://www.crtm.es,0,,Europe/Madrid,0
par_8_3606,3606,FCO. PI Y MARGALL-ISABEL VALOIS,Avda de Francisco Pi y Margall 96,40.4923324584961,-3.66170024871826,A,http://www.crtm.es,0,,Europe/Madrid,0
par_8_5395,5395,FCO.PI Y MARGALL-VICENTE BLASCO IBAÑEZ,Avda de Francisco Pi y Margall 75,40.4898643493652,-3.65850186347961,A,http://www.crtm.es,0,,Europe/Madrid,0
par_8_5396,5396,PZA.ALCALDE MORENO TORRES,Plaza del Alcalde Moreno Torres 4,40.4878463745117,-3.65561485290527,A,http://www.crtm.es,0,,Europe/Madrid,0
par_8_5403,5403,INGENIERO HERRERA-MORENO TORRES,Avda del Ingeniero Emilio Herrera 12,40.4879684448242,-3.6575984954834,A,http://www.crtm.es,0,,Europe/Madrid,0
par_8_11333,11333,AV.VEGA-AV.BARAJAS,Avda de la Vega 2,40.5367088317871,-3.62485885620117,B1,http://www.crtm.es,0,,Europe/Madrid,2
par_8_11334,11334,AV.VEGA-AV.BARAJAS,Avda de la Vega 1,40.5363273620605,-3.62517428398132,B1,http://www.crtm.es,0,,Europe/Madrid,2
par_8_11792,11792,AV.VEGA-ANABEL SEGURA,Avda de la Vega 8,40.5358352661133,-3.62797999382019,B1,http://www.crtm.es,0,,Europe/Madrid,2
par_8_11793,11793,AV.VEGA-ANABEL SEGURA,Avda de la Vega 7,40.5355834960938,-3.6278121471405,B1,http://www.crtm.es,0,,Europe/Madrid,2
par_8_11795,11795,AV.VEGA-FRANCISCA DELGADO,Avda de la Vega 13,40.5347862243652,-3.63057947158813,B1,http://www.crtm.es,0,,Europe/Madrid,2
par_8_11796,11796,AV.BRUSELAS-FRANCISCA DELGADO,Avda de Bruselas 6,40.5311813354492,-3.6324348449707,B1,http://www.crtm.es,0,,Europe/Madrid,2
par_8_11797,11797,AV.BRUSELAS-SALVIA,Avda de Bruselas 5,40.5309562683105,-3.63235020637512,B1,http://www.crtm.es,0,,Europe/Madrid,2
par_8_11798,11798,AV.BRUSELAS-EST.LA MORALEJA,Avda de Bruselas 14,40.531681060791,-3.63513159751892,B1,http://www.crtm.es,0,,Europe/Madrid,2
par_8_11799,11799,AV.BRUSELAS-EST.LA MORALEJA,Avda de Bruselas 15,40.5314636230469,-3.63515329360962,B1,http://www.crtm.es,0,,Europe/Madrid,2
par_8_12093,12093,AV.BRUSELAS-CENTRO EMPRESARIAL,Avda de Bruselas 34,40.5296058654785,-3.64231419563293,B1,http://www.crtm.es,0,,Europe/Madrid,2
par_8_12094,12094,AV.BRUSELAS-CENTRO EMPRESARIAL,Avda de Bruselas 33,40.5295066833496,-3.6420533657074,B1,http://www.crtm.es,0,,Europe/Madrid,2
par_8_12236,12236,CALÉNDULA-RESIDENCIAL MINIPARK,Calle de Caléndula 95,40.5279197692871,-3.64403367042542,B1,http://www.crtm.es,0,,Europe/Madrid,2
par_8_12237,12237,CALÉNDULA-RESIDENCIAL MINIPARK,Calle de Caléndula 180,40.5277938842773,-3.64406776428223,B1,http://www.crtm.es,0,,Europe/Madrid,2
par_8_12238,12238,CALÉNDULA-YUCA,Calle de Caléndula 87,40.5262107849121,-3.6464729309082,B1,http://www.crtm.es,0,,Europe/Madrid,2
par_8_12239,12239,CALÉNDULA-YUCA,Calle de la Caléndula 141,40.526123046875,-3.64627146720886,B1,http://www.crtm.es,0,,Europe/Madrid,2
par_8_12929,12929,AV.BRUSELAS-CENTRO COMERCIAL,Avda de Bruselas 26,40.5307693481445,-3.64027094841003,B1,http://www.crtm.es,0,,Europe/Madrid,2
par_8_12930,12930,AV.BRUSELAS-CENTRO COMERCIAL,Avda de Bruselas SN,40.5305366516113,-3.64016222953796,B1,http://www.crtm.es,0,,Europe/Madrid,2
par_8_18283,18283,FRANCISCA DELGADO-AV.VEGA,Calle de Francisca Delgado 7,40.5343170166016,-3.63089394569397,B1,http://www.crtm.es,0,,Europe/Madrid,0
par_8_06694,06694,CTRA.ANTIGUA DE BURGOS-LA GRANJILLA,Ctra   N-I ( Burgos) 20300,40.5691719055176,-3.6023485660553,B2,http://www.crtm.es,0,,Europe/Madrid,2
par_8_06695,06695,CTRA.ANTIGUA DE BURGOS-CARAVANAS,Ctra   N-I ( Burgos) 21900,40.5761680603027,-3.59238028526306,B2,http://www.crtm.es,0,,Europe/Madrid,2
par_8_06724,06724,AV.MONTECILLO-AV.TERCIA,Avda del Montecillo 18,40.5907745361328,-3.58816051483154,B2,http://www.crtm.es,0,,Europe/Madrid,2
par_8_06725,06725,AV.FUENTE SAN ISIDRO-AV.PERDIGÓN,Avda de la Fuente de San Isidro 11,40.5936317443848,-3.59157729148865,B2,http://www.crtm.es,0,,Europe/Madrid,2
par_8_06726,06726,AV.PESADILLA-AV.SAN AGUSTIN,Avda de Pesadilla 26,40.5959014892578,-3.59345269203186,B2,http://www.crtm.es,0,,Europe/Madrid,2
par_8_06727,06727,AV.PESADILLA-PORTILLO PESADILLA,Avda de Pesadilla 40,40.5976486206055,-3.59709644317627,B2,http://www.crtm.es,0,,Europe/Madrid,2
par_8_06728,06728,AV.PESADILLA-PORTILLO CIERVOS,Avda de Pesadilla 60,40.5978927612305,-3.6019561290741,B2,http://www.crtm.es,0,,Europe/Madrid,2
par_8_06729,06729,AV.VIÑUELAS-AV.ENEBRAL,Avda de Viñuelas 26,40.596752166748,-3.60653162002563,B2,http://www.crtm.es,0,,Europe/Madrid,2
par_8_06730,06730,AV.VIÑUELAS-AV.COLMENAR VIEJO,Avda de Viñuelas 8,40.5933418273926,-3.60364079475403,B2,http://www.crtm.es,0,,Europe/Madrid,2
par_8_06731,06731,AV.SANCHO ROSA-ALGETE,Avda de Sancho Rosa 59,40.5926895141602,-3.59917974472046,B2,http://www.crtm.es,0,,Europe/Madrid,2
par_8_06732,06732,AV.SANCHO ROSA-AV.PALOMAR,Avda de Sancho Rosa 43,40.5898590087891,-3.59791350364685,B2,http://www.crtm.es,0,,Europe/Madrid,2
par_8_06733,06733,AV.SANCHO ROSA-AV.VALDEALMENDROS,Avda de Sancho Rosa 25,40.5876350402832,-3.5943603515625,B2,http://www.crtm.es,0,,Europe/Madrid,2
par_8_06734,06734,AV.FUENTE LA TERCIA-AV.SANCHO ROSA,Avda de la Fuente de la Tercia 13,40.5858688354492,-3.58949995040894,B2,http://www.crtm.es,0,,Europe/Madrid,2
par_8_06735,06735,SENDA ARDAL-CASETA CONTROL,Senda del Ardal 1,40.5881462097168,-3.58778285980225,B2,http://www.crtm.es,0,,Europe/Madrid,2
par_8_06749,06749,CTRA.ANTIGUA DE BURGOS-GRANJA ESCUELA,Ctra  N-I Burgos S/N,40.5763740539551,-3.59272480010986,B2,http://www.crtm.es,0,,Europe/Madrid,2
par_8_12448,12448,GRAMÍNEAS-LA GRANJILLA,Calle de las Gramíneas 1 A,40.5713119506836,-3.60083198547363,B2,http://www.crtm.es,0,,Europe/Madrid,2
par_8_12449,12449,GRAMÍNEAS-LABRANZA,Calle de las Gramíneas 16,40.5729484558105,-3.60547780990601,B2,http://www.crtm.es,0,,Europe/Madrid,2
par_8_12450,12450,CºPESADILLA-CLUB DE CAMPO Y DEPORTE,Cmno de la Pesadilla SN,40.5707092285156,-3.60956883430481,B2,http://www.crtm.es,0,,Europe/Madrid,2
par_8_15851,15851,AV.TENERIFE-LANZAROTE,Avda de Tenerife 28,40.5594482421875,-3.61645936965942,B1,http://www.crtm.es,0,,Europe/Madrid,2
par_8_16437,16437,CTRA.ANTIGUA DE BURGOS-C.C.ALEGRA,Ctra   N-I ( Burgos) 19900,40.5660285949707,-3.60559248924255,B1,http://www.crtm.es,0,,Europe/Madrid,2
par_8_06697,06697,CTRA.A1-URB.FUENTE EL FRESNO,Ctra   N-I ( Burgos) 23400,40.5890731811523,-3.58275675773621,B2,http://www.crtm.es,0,,Europe/Madrid,2
par_8_06698,06698,CTRA.A1-EL ALEMÁN,Ctra   N-I ( Burgos) 24200,40.5971450805664,-3.58106589317322,B2,http://www.crtm.es,0,,Europe/Madrid,2
par_8_06701,06701,CTRA.A1-URB.CIUDALCAMPO,Ctra   Nacional I 28.300,40.627872467041,-3.58638119697571,B3,http://www.crtm.es,0,,Europe/Madrid,2
par_8_06706,06706,AV.PRINCIPAL-URB.VALDELAGUA,Calle de los Pinos S/N,40.6514549255371,-3.61149764060974,B3,http://www.crtm.es,0,,Europe/Madrid,2
par_8_06707,06707,AV.PRINCIPAL-CASETA URB.VALDELAGUA,Avda   Principal 66,40.6488647460938,-3.59819149971008,B3,http://www.crtm.es,0,,Europe/Madrid,2
par_8_06719,06719,CTRA.A1-URB.CIUDALCAMPO,Ctra   A-1 27.9,40.6262359619141,-3.58786845207214,B3,http://www.crtm.es,0,,Europe/Madrid,2
par_8_06722,06722,CTRA.A1-EL ALEMÁN,Ctra   N-I ( Burgos) 24300,40.5976371765137,-3.58181476593018,B2,http://www.crtm.es,0,,Europe/Madrid,2
par_8_06723,06723,CTRA.A1-URB.FUENTE EL FRESNO,Ctra   N-I ( Burgos) 23400,40.5893402099609,-3.58359813690186,B2,http://www.crtm.es,0,,Europe/Madrid,2
par_8_06750,06750,CTRA.ANTIGUA DE BURGOS-LA GRANJILLA,Ctra   N-I ( Burgos) 20400,40.5697021484375,-3.60222339630127,B2,http://www.crtm.es,0,,Europe/Madrid,2
par_8_11589,11589,AV.CAMINO DE LO CORTAO-DR.FLEMING,Avda de Camino de lo Cortao 2,40.5491752624512,-3.61992001533508,B1,http://www.crtm.es,0,,Europe/Madrid,2
par_8_11591,11591,AV.CAMINO DE LO CORTAO-AV.FUENTE NUEVA,Avda de Camino de lo Cortao 11,40.5505790710449,-3.61524415016174,B1,http://www.crtm.es,0,,Europe/Madrid,2
par_8_11593,11593,AV.CAMINO DE LO CORTAO-AV.MONCAYO,Avda de Camino de lo Cortao 31,40.5542297363281,-3.6114981174469,B1,http://www.crtm.es,0,,Europe/Madrid,2
par_8_11594,11594,AV.CAMINO DE LO CORTAO-AV.MONCAYO,Avda de Camino de lo Cortao 31,40.5543098449707,-3.61162877082825,B1,http://www.crtm.es,0,,Europe/Madrid,2
par_8_15608,15608,PZA.ANTONIO CABEZÓN-URB.CLUB DE CAMPO,Plaza   Antonio de Cabezón 1,40.6103019714355,-3.58323669433594,B3,http://www.crtm.es,0,,Europe/Madrid,2
par_8_16438,16438,CTRA.ANTIGUA DE BURGOS-C.C.ALEGRA,Ctra   N-I ( Burgos) 19900,40.566089630127,-3.6059238910675,B1,http://www.crtm.es,0,,Europe/Madrid,2
par_8_17025,17025,PºEUROPA-HOSPITAL INFANTA SOFÍA,Paseo   Europa 11,40.5602951049805,-3.61124610900879,B1,http://www.crtm.es,0,,Europe/Madrid,2
par_8_18789,18789,CTRA.A1-URB.FRESNO NORTE,Ctra   CTRA. A1 23800,40.5935401916504,-3.58267760276794,B2,http://www.crtm.es,0,,Europe/Madrid,0
par_8_19185,19185,AV.PRINCIPAL-CASETA URB.VALDELAGUA,Avda   Principal 66,40.6489753723145,-3.59812140464783,B3,http://www.crtm.es,0,,Europe/Madrid,0
par_8_06700,06700,CTRA.A1-CIRCUITO DEL JARAMA,Ctra   N-I ( Burgos) 26000,40.6117782592773,-3.58051896095276,B3,http://www.crtm.es,0,,Europe/Madrid,2
par_8_06709,06709,AV.GUADALIX-CENTRO COMERCIAL,Avda del Guadalix 35 A,40.6288299560547,-3.58259391784668,B3,http://www.crtm.es,0,,Europe/Madrid,2
par_8_06710,06710,AV.GUADALIX-AV.MONTE,Avda del Guadalix 31,40.6264305114746,-3.58094143867493,B3,http://www.crtm.es,0,,Europe/Madrid,2
par_8_06711,06711,AV.MONTE-CORTA,Avda del Monte 28,40.6289138793945,-3.57494425773621,B3,http://www.crtm.es,0,,Europe/Madrid,2
par_8_06712,06712,AV.MONTE-ALTA,Avda del Monte 62,40.6333694458008,-3.57378816604614,B3,http://www.crtm.es,0,,Europe/Madrid,2
par_8_06713,06713,AV.MONTE-CERRO,Avda del Monte 90,40.637523651123,-3.57687497138977,B3,http://www.crtm.es,0,,Europe/Madrid,2
par_8_06714,06714,AV.MONTE-AV.GUADALIX,Avda del Monte 108,40.6408195495605,-3.57525944709778,B3,http://www.crtm.es,0,,Europe/Madrid,2
par_8_06715,06715,AV.GUADALIX Nº108,Avda del Guadalix 108,40.6398391723633,-3.5789053440094,B3,http://www.crtm.es,0,,Europe/Madrid,2
par_8_06716,06716,AV.GUADALIX-NORTE,Avda del Guadalix 88,40.6377296447754,-3.58294320106506,B3,http://www.crtm.es,0,,Europe/Madrid,2
par_8_06717,06717,AV.GUADALIX-CENTRO DEPORTIVO,Avda del Guadalix 62,40.6323127746582,-3.58463430404663,B3,http://www.crtm.es,0,,Europe/Madrid,2
par_8_06718,06718,AV.GUADALIX-CENTRO DE SALUD,Avda del Guadalix 50,40.6294136047363,-3.58301281929016,B3,http://www.crtm.es,0,,Europe/Madrid,2
par_8_06720,06720,CTRA.A1-CIRCUITO DEL JARAMA,Ctra   N-I Burgos S/N,40.6107482910156,-3.58099460601807,B3,http://www.crtm.es,0,,Europe/Madrid,2
par_8_10019,10019,PºEUROPA-GTA.ANTONIO GAUDÍ,Paseo   Europa 7,40.5562934875488,-3.61487126350403,B1,http://www.crtm.es,0,,Europe/Madrid,2
par_8_11402,11402,PºEUROPA-GTA.ANTONIO GAUDÍ,Paseo   Europa 7,40.5563850402832,-3.61443519592285,B1,http://www.crtm.es,0,,Europe/Madrid,2
par_8_123,123,BAMBU-AV.PIO XII,Calle del Bambú 4,40.4739990234375,-3.67745804786682,A,http://www.crtm.es,0,,Europe/Madrid,0
par_8_12421,12421,PºEUROPA-AV.MONTES DE OCA,Avda de Somosierra 14,40.5532073974609,-3.61732339859009,B1,http://www.crtm.es,0,,Europe/Madrid,2
par_8_12422,12422,PºEUROPA-AV.MONTES DE OCA,Paseo   Europa 1,40.553352355957,-3.61756086349487,B1,http://www.crtm.es,0,,Europe/Madrid,2
par_8_12841,12841,PZA.LA FUENTE-URB.CIUDALCAMPO,Plaza de La Fuente SN,40.6267967224121,-3.58864188194275,B3,http://www.crtm.es,0,,Europe/Madrid,2
par_8_3266,3266,AV.BURGOS-AV.SAN LUIS,Avda de Burgos 40,40.4810905456543,-3.67592477798462,A,http://www.crtm.es,0,,Europe/Madrid,0
par_8_5061,5061,AV.BURGOS Nº 85,Ctra de Fuencarral a Hortaleza 8,40.4874076843262,-3.6735692024231,A,http://www.crtm.es,0,,Europe/Madrid,0
par_8_06693,06693,PºEUROPA-MARÍA SANTOS COLMENAR,Paseo   Europa 26,40.544750213623,-3.62408328056335,B1,http://www.crtm.es,0,,Europe/Madrid,2
par_8_06736,06736,CTRA.M100-EL CASETÓN,Ctra  M-111 Paracuellos a Fuente El Saz SN,40.5845527648926,-3.56065630912781,B2,http://www.crtm.es,0,,Europe/Madrid,2
par_8_06737,06737,CTRA.M106-POL.IND.RÍO DE JANEIRO,Ctra de Algete 4.500,40.5880737304688,-3.54402375221252,B3,http://www.crtm.es,0,,Europe/Madrid,2
par_8_06739,06739,CTRA.M106-POL.IND.EL NOGAL,Ctra de Algete 20,40.5933227539063,-3.52291202545166,B3,http://www.crtm.es,0,,Europe/Madrid,2
par_8_06740,06740,MAYOR-SAN JUAN DE LA CRUZ,Calle  Mayor 50,40.5964469909668,-3.50529146194458,B3,http://www.crtm.es,0,,Europe/Madrid,2
par_8_06741,06741,RONDA DE LA CONSTITUCIÓN-ALCALÁ,Calle   Ronda de la Constitución 137,40.5954666137695,-3.49679851531982,B3,http://www.crtm.es,0,,Europe/Madrid,2
par_8_06743,06743,PZA.CONSTITUCIÓN-BIBLIOTECA,Plaza de la Constitución 5,40.5963821411133,-3.49732518196106,B3,http://www.crtm.es,0,,Europe/Madrid,2
par_8_06744,06744,MAYOR-PARQUE LOS OLIVOS,Calle  Mayor 50,40.5966529846191,-3.50324845314026,B3,http://www.crtm.es,0,,Europe/Madrid,2
par_8_06745,06745,CTRA.M106-POL.IND.EL NOGAL,Ctra de Algete 2.700,40.5939788818359,-3.52148723602295,B3,http://www.crtm.es,0,,Europe/Madrid,2
par_8_06746,06746,CTRA.M106-POL.IND.RÍO DE JANEIRO,Ctra de Algete 3.500,40.5886192321777,-3.54262185096741,B3,http://www.crtm.es,0,,Europe/Madrid,2
par_8_06747,06747,CTRA-M100-EL CASETÓN,Ctra  Algete 21.600,40.5852546691895,-3.56085133552551,B2,http://www.crtm.es,0,,Europe/Madrid,2
par_8_06751,06751,PºEUROPA-PARQUE PICOS DE OLITE,Paseo   Europa 26,40.5448379516602,-3.62434387207031,B1,http://www.crtm.es,0,,Europe/Madrid,2
par_8_06778,06778,AV.ESPAÑA-CENTRO DE SALUD,Avda de España 36,40.544994354248,-3.63199806213379,B1,http://www.crtm.es,0,,Europe/Madrid,2
par_8_10227,10227,CTRA.M100-CºVIEJO DE BARAJAS,Ctra   Algete 22200,40.5834121704102,-3.57415270805359,B2,http://www.crtm.es,0,,Europe/Madrid,2
par_8_10228,10228,CTRA.M100-CºVIEJO DE BARAJAS,Ctra  Algete 22.400,40.5837631225586,-3.57461667060852,B2,http://www.crtm.es,0,,Europe/Madrid,2
par_8_11698,11698,RONDA CONSTITUCIÓN-FUENTE DEL NOQUE,Calle   Ronda de la Constitución 113,40.5964469909668,-3.49471378326416,B3,http://www.crtm.es,0,,Europe/Madrid,2
par_8_12925,12925,AV.ESPAÑA-CENTRO DE MAYORES,Avda de España 58,40.5434722900391,-3.62831091880798,B1,http://www.crtm.es,0,,Europe/Madrid,2
par_8_13074,13074,CALDO-CASA DE LA JUVENTUD,Calle del Caldo S/N,40.5963096618652,-3.50148487091064,B3,http://www.crtm.es,0,,Europe/Madrid,2
par_8_13125,13125,CTRA.M106-POL.IND.LA GARZA,Ctra de Algete SN,40.5911254882813,-3.53023386001587,B3,http://www.crtm.es,0,,Europe/Madrid,2
par_8_15191,15191,PºEUROPA-AV.ESPAÑA,Paseo   Europa 26,40.5417900085449,-3.62687826156616,B1,http://www.crtm.es,0,,Europe/Madrid,2
par_8_15192,15192,PºEUROPA-CºJUNCAL,Paseo   Europa 26,40.541389465332,-3.62699270248413,B1,http://www.crtm.es,0,,Europe/Madrid,2
par_8_16181,16181,AV.MATAPIÑONERA-AV.SEVERO OCHOA,Avda   Matapiñonera 24,40.5408363342285,-3.61828446388245,B1,http://www.crtm.es,0,,Europe/Madrid,2
par_8_16182,16182,AV.MATAPIÑONERA-FRESA,Avda   Matapiñonera 24,40.5450096130371,-3.61730718612671,B1,http://www.crtm.es,0,,Europe/Madrid,2
par_8_16189,16189,AV.MATAPIÑONERA-AV.CAMINO DE LO CORTAO,Avda   Matapiñonera 6,40.5483055114746,-3.61967587471008,B1,http://www.crtm.es,0,,Europe/Madrid,2
par_8_16190,16190,AV.MATAPIÑONERA-PLAZA NORTE,Avda  Matapiñonera 24,40.5434112548828,-3.61665487289429,B1,http://www.crtm.es,0,,Europe/Madrid,2
par_8_17237,17237,PºEUROPA-LEOPOLDO GIMENO,Avda de Camino de lo Cortao 2,40.5476913452148,-3.62171316146851,B1,http://www.crtm.es,0,,Europe/Madrid,2
par_8_17238,17238,PºEUROPA-LEOPOLDO GIMENO,Paseo   Europa 26,40.5477409362793,-3.62202072143555,B1,http://www.crtm.es,0,,Europe/Madrid,2
par_8_06752,06752,BULV.SALVADOR ALLENDE-SORIA,Bulv de Salvador Allende 19,40.5379219055176,-3.63352560997009,B1,http://www.crtm.es,0,,Europe/Madrid,2
par_8_11689,11689,ALCALÁ-RONDA DE LA CONSTITUCIÓN,Calle de Alcalá 11,40.5950889587402,-3.49823760986328,B3,http://www.crtm.es,0,,Europe/Madrid,2
par_8_11690,11690,AV.CIGARRAL-MONTE TESORO,Avda del Cigarral 45,40.593074798584,-3.49760794639587,B3,http://www.crtm.es,0,,Europe/Madrid,2
par_8_09541,09541,VALDEOLMOS-PZA.NACIONAL,Plaza  Nacional 1,40.6383895874023,-3.45365619659424,C1,http://www.crtm.es,0,,Europe/Madrid,2
par_8_09542,09542,AV.PAZ-URB.MIRAVAL,Avda de la Paz 22,40.6159553527832,-3.47202944755554,C1,http://www.crtm.es,0,,Europe/Madrid,2
par_8_10022,10022,CTRA.M123-ZARZUELA DEL MONTE,Ctra de M-123 9.700,40.6555328369141,-3.4344437122345,C1,http://www.crtm.es,0,,Europe/Madrid,2
par_8_10023,10023,ALALPARDO-CARLOS MARTÍN ÁLVAREZ,Calle de José Antonio (Alalpardo) 19,40.6294555664063,-3.47522258758545,C1,http://www.crtm.es,0,,Europe/Madrid,2
par_8_10024,10024,CTRA.M123-URB.EL RETORNO,Ctra de Algete-Casar de Talamanca 5700,40.6322250366211,-3.46799349784851,C1,http://www.crtm.es,0,,Europe/Madrid,2
par_8_10050,10050,CTRA.M123-ZARZUELA DEL MONTE,Ctra de M-123 9.700,40.655689239502,-3.43444490432739,C1,http://www.crtm.es,0,,Europe/Madrid,2
par_8_10551,10551,CTRA.M123-URB.EL RETORNO,Ctra de Algete-Casar de Talamanca 5700,40.6322059631348,-3.46762681007385,C1,http://www.crtm.es,0,,Europe/Madrid,2
par_8_11701,11701,VALDEOLMOS-PZA.NACIONAL,Calle   Subida a la Iglesia 8,40.638370513916,-3.45338416099548,C1,http://www.crtm.es,0,,Europe/Madrid,2
par_8_12334,12334,CTRA.M123-FINCA MIRADOR,Ctra de M-123 11600,40.6723556518555,-3.4265308380127,C1,http://www.crtm.es,0,,Europe/Madrid,2
par_8_12335,12335,CTRA.M123-FINCA MIRADOR,Ctra de M-123 11700,40.6726722717285,-3.42656850814819,C1,http://www.crtm.es,0,,Europe/Madrid,2
par_8_16133,16133,SAN SEBASTIÁN-CONSULTORIO MÉDICO,Calle   San Sebastián 3,40.6282730102539,-3.4760890007019,C1,http://www.crtm.es,0,,Europe/Madrid,2
par_8_16134,16134,ALALPARDO-SAN SEBASTIÁN,Calle de Carlos Martín Álvarez 8,40.6297378540039,-3.47410130500793,C1,http://www.crtm.es,0,,Europe/Madrid,2
par_8_18125,18125,VALDEOLMOS-ZARZUELA,Calle  Zarzuela 2,40.6391105651855,-3.45109486579895,C1,http://www.crtm.es,0,,Europe/Madrid,0
par_8_18713,18713,ARROYO DE LAS FRAGUAS-CTRA.GUADALAJARA,Calle de Guadalajara SN,41.1010131835938,-3.13133978843689,SZ,http://www.crtm.es,0,,Europe/Madrid,0
par_8_18714,18714,VEGUILLAS-CºCANTERA,Ctra de Veguillas 0,40.9977684020996,-3.0722553730011,SZ,http://www.crtm.es,0,,Europe/Madrid,0
par_8_18715,18715,VEGUILLAS-CºCANTERA,Ctra de Veguillas 2,40.997688293457,-3.07170844078064,SZ,http://www.crtm.es,0,,Europe/Madrid,0
par_8_18717,18717,TAMAJÓN-NUEVA,Calle DE Enmedio sn,41.0028457641602,-3.24900722503662,SZ,http://www.crtm.es,0,,Europe/Madrid,0
par_8_18718,18718,COGOLLUDO-CENTRO DE SALUD,Ctra de Humanes sn,40.945068359375,-3.08980488777161,SZ,http://www.crtm.es,0,,Europe/Madrid,0
par_8_18719,18719,COGOLLUDO-CENTRO DE SALUD,Ctra de Humanes SN,40.9454193115234,-3.08910441398621,SZ,http://www.crtm.es,0,,Europe/Madrid,0
par_8_18720,18720,CTRA.TAMAJÓN-CRUCE RETIENDAS,Ctra de Guadalajara sn,40.965217590332,-3.25383329391479,SZ,http://www.crtm.es,0,,Europe/Madrid,0
par_8_18721,18721,CTRA.TAMAJÓN-CRUCE RETIENDAS,Ctra de Guadalajara sn,40.9649124145508,-3.25385594367981,SZ,http://www.crtm.es,0,,Europe/Madrid,0
par_8_18724,18724,CTRA.TAMAJÓN-CRUCE PUEBLA DEL VALLES,Ctra de Puebla del Vallés SN,40.9289894104004,-3.26883864402771,SZ,http://www.crtm.es,0,,Europe/Madrid,0
par_8_18725,18725,CTRA.TAMAJÓN-CRUCE PUEBLA DEL VALLES,Ctra de Puebla del Vallés SN,40.9293060302734,-3.26878046989441,SZ,http://www.crtm.es,0,,Europe/Madrid,0
par_8_18726,18726,CTRA.TAMAJÓN-CRUCE LA MIERLA,Ctra de Guadalajara SN,40.922046661377,-3.25913119316101,SZ,http://www.crtm.es,0,,Europe/Madrid,0
par_8_18727,18727,CTRA.TAMAJÓN-CRUCE LA MIERLA,Ctra de Guadalajara SN,40.9220199584961,-3.25943994522095,SZ,http://www.crtm.es,0,,Europe/Madrid,0
par_8_18728,18728,PUEBLA DE BELEÑA-REAL,Calle  Real sn,40.8902244567871,-3.2178750038147,SZ,http://www.crtm.es,0,,Europe/Madrid,0
par_8_18729,18729,PUEBLA DE BELEÑA-REAL,Calle   Real sn,40.8904228210449,-3.21794700622559,SZ,http://www.crtm.es,0,,Europe/Madrid,0
par_8_18730,18730,CASA DE UCEDA-CTRA.TORRELAGUNA,Ctra de Torrelaguna sn,40.8417701721191,-3.36995387077332,E2,http://www.crtm.es,0,,Europe/Madrid,0
par_8_18731,18731,CASA DE UCEDA-CTRA.TORRELAGUNA,Ctra de Torrelaguna sn,40.8417549133301,-3.36919450759888,E2,http://www.crtm.es,0,,Europe/Madrid,0
par_8_18732,18732,EL CUBILLO DE LA UCEDA-CTRA.GUADALAJARA,Ctra de Guadalajara sn,40.8240852355957,-3.40236067771912,E2,http://www.crtm.es,0,,Europe/Madrid,0
par_8_18733,18733,EL CUBILLO DE LA UCEDA-CTRA.GUADALAJARA,Ctra de Guadalajara sn,40.8244438171387,-3.40251708030701,E2,http://www.crtm.es,0,,Europe/Madrid,0
par_8_18734,18734,VIÑUELAS-CTRA.VALDENUÑO,Ctra de Valdenuño sn,40.7943725585938,-3.34415793418884,E2,http://www.crtm.es,0,,Europe/Madrid,0
par_8_18735,18735,VIÑUELAS-CTRA.VALDENUÑO,Ctra de Valdenuño sn,40.7946891784668,-3.34439659118652,E2,http://www.crtm.es,0,,Europe/Madrid,0
par_8_18736,18736,CTRA.VIÑUELAS-URB.LA DEHESA,Ctra de Valdenuño-Viñuelas sn,40.7741928100586,-3.36826324462891,E1,http://www.crtm.es,0,,Europe/Madrid,0
par_8_18737,18737,CTRA.VIÑUELAS.URB.LA DEHESA,Ctra de Valdenuño-Viñuelas SN,40.7741203308105,-3.36780071258545,E1,http://www.crtm.es,0,,Europe/Madrid,0
par_8_18738,18738,VALDENUÑO FERNÁNDEZ-CALVARIO,Calle  El Calvario sn,40.7630348205566,-3.38109230995178,E1,http://www.crtm.es,0,,Europe/Madrid,0
par_8_18739,18739,VALDENUÑO FERNÁNDEZ-CALVARIO,Calle  El Calvario sn,40.7633399963379,-3.38067936897278,E1,http://www.crtm.es,0,,Europe/Madrid,0
par_8_18740,18740,CTRA.VALDENUÑO-CRUCE MESONES,Ctra de  Mesones-Valdenuño sn,40.7536392211914,-3.41236042976379,E1,http://www.crtm.es,0,,Europe/Madrid,0
par_8_18741,18741,CTRA.VALDENUÑO-CRUCE MESONES,Ctra de Mesones-Valdenuño SN,40.7535781860352,-3.41188621520996,E1,http://www.crtm.es,0,,Europe/Madrid,0
par_8_18742,18742,MESONES-PZA.FUENTE,Calle de la  Fuente SN,40.764591217041,-3.41528367996216,E1,http://www.crtm.es,0,,Europe/Madrid,0
par_8_18744,18744,CTRA.ALGETE-URB.MONTECALDERÓN,Ctra  CM111 2,40.6836128234863,-3.42235422134399,E1,http://www.crtm.es,0,,Europe/Madrid,0
par_8_18745,18745,CTRA.ALGETE-URB.MONTECALDERÓN,Ctra   CM111 SN,40.6839942932129,-3.42196607589722,E1,http://www.crtm.es,0,,Europe/Madrid,0
par_8_18758,18758,LA UNIÓN-JUAN CARLOS I,Calle de Juan Carlos I SN,40.7035713195801,-3.42875409126282,E1,http://www.crtm.es,0,,Europe/Madrid,0
par_8_19078,19078,MATARRUBIA-URB.MONTEHUECO,Ctra  CM-1001 0,40.8654251098633,-3.26935267448425,E2,http://www.crtm.es,0,,Europe/Madrid,0
par_8_19079,19079,MATARRUBIA-URB.MONTEHUECO,Ctra  CM-1001 0,40.8656768798828,-3.26947236061096,E2,http://www.crtm.es,0,,Europe/Madrid,0
par_8_19175,19175,CTRA.M123-CENTRO DE INVESTIGACIÓN,Ctra de Algete-Casar de Talamanca 7800,40.6446952819824,-3.44946479797363,C1,http://www.crtm.es,0,,Europe/Madrid,0
par_8_19177,19177,CTRA.M123-CENTRO DE INVESTIGACIÓN,Ctra de Algete-Casar de Talamanca 7700,40.6442222595215,-3.45021867752075,C1,http://www.crtm.es,0,,Europe/Madrid,0
par_8_19178,19178,CTRA.M123-LAS PIEDRAS,Ctra de Algete-Casar de Talamanca 8400,40.6471328735352,-3.44278693199158,C1,http://www.crtm.es,0,,Europe/Madrid,0
par_8_19179,19179,CTRA.M123-LAS PIEDRAS,Ctra de Algete-Casar de Talamanca 8300,40.646842956543,-3.44363641738892,C1,http://www.crtm.es,0,,Europe/Madrid,0
par_8_06738,06738,OLIVO-CLÍNICA MUNICIPAL,Calle del Olivo 14,40.5669174194336,-3.50713658332825,B3,http://www.crtm.es,0,,Europe/Madrid,2
par_8_10025,10025,OLIVO-PZA.ERAS DE ARRIBA,Calle del Olivo 1,40.571662902832,-3.50510501861572,B3,http://www.crtm.es,0,,Europe/Madrid,2
par_8_10026,10026,CTRA.M118-CAMINO DE LA DEHESA,Calle del Olivo 2 D,40.5713653564453,-3.50509095191956,B3,http://www.crtm.es,0,,Europe/Madrid,2
par_8_11948,11948,CTRA.M103-POLIDEPORTIVO,Ctra   M-103 5900,40.5804901123047,-3.50807809829712,B3,http://www.crtm.es,0,,Europe/Madrid,2
par_8_11949,11949,CTRA.M103-POLIDEPORTIVO,Ctra  M-103 SN,40.5812644958496,-3.5076584815979,B3,http://www.crtm.es,0,,Europe/Madrid,2
par_8_12621,12621,OLIVO-CLÍNICA MUNICIPAL,Calle del Olivo 16,40.5668144226074,-3.50738382339478,B3,http://www.crtm.es,0,,Europe/Madrid,2
par_8_17985,17985,CTRA.M103-URB.MIRADOR DE COBEÑA,Ctra   M-103 3100,40.5611534118652,-3.51220774650574,B3,http://www.crtm.es,0,,Europe/Madrid,0
par_8_17986,17986,CTRA.M103-URB.MIRADOR DE COBEÑA,Ctra   M-103 3100,40.5610313415527,-3.5120415687561,B3,http://www.crtm.es,0,,Europe/Madrid,0
par_8_11101,11101,CTRA.TORRELAGUNA-LAS CLARISAS,Calle   Torrelaguna 45,40.6374397277832,-3.51086282730103,C1,http://www.crtm.es,0,,Europe/Madrid,2
par_8_11889,11889,CTRA.M117-URB.LOS MANANTIALES,Ctra del Casar de Talamanca 20,40.6449241638184,-3.50473427772522,C1,http://www.crtm.es,0,,Europe/Madrid,2
par_8_11890,11890,CTRA.M117-URB.LOS MANANTIALES,Ctra del Casar de Talamanca 800,40.6449966430664,-3.50482940673828,C1,http://www.crtm.es,0,,Europe/Madrid,2
par_8_11891,11891,CTRA.M117-EL CHAPARRO,Ctra del Casar de Talamanca 170,40.654972076416,-3.49337148666382,C1,http://www.crtm.es,0,,Europe/Madrid,2
par_8_11892,11892,CTRA.M117-CºVIEJO DEL CASAR,Cmno  Viejo del Casar 205,40.6551094055176,-3.49358534812927,C1,http://www.crtm.es,0,,Europe/Madrid,2
par_8_11893,11893,CTRA.M117-URB.EL JUNCAL,Ctra del Casar de Talamanca 3800,40.6655006408691,-3.48167753219604,C1,http://www.crtm.es,0,,Europe/Madrid,2
par_8_11894,11894,CTRA.M117-URB.EL JUNCAL,Ctra del Casar de Talamanca 3800,40.6654624938965,-3.48197317123413,C1,http://www.crtm.es,0,,Europe/Madrid,2
par_8_11895,11895,CTRA.M117-URB.LA CUEVA,Ctra   M-117 5800,40.6799926757813,-3.47612547874451,C1,http://www.crtm.es,0,,Europe/Madrid,2
par_8_11896,11896,CTRA.M117-URB.LA CUEVA,Ctra  M-117 5.500,40.6800880432129,-3.47620916366577,C1,http://www.crtm.es,0,,Europe/Madrid,2
par_8_12085,12085,CTRA.TORRELAGUNA-LAS CLARISAS,Calle   Torrelaguna 12400,40.6376190185547,-3.51069855690002,C1,http://www.crtm.es,0,,Europe/Madrid,2
par_8_13030,13030,SANTA TERESA DE JESÚS-JOSÉ MªPEMAN,Calle de Santa Teresa de Jesús SN,40.6002388000488,-3.50732922554016,B3,http://www.crtm.es,0,,Europe/Madrid,2
par_8_13031,13031,SANTA TERESA DE JESÚS-CASA DE NIÑOS,Calle de Santa Teresa de Jesús SN,40.6002311706543,-3.50717544555664,B3,http://www.crtm.es,0,,Europe/Madrid,2
par_8_13032,13032,SANTA TERESA DE JESÚS-J.RAMÓN JIMENEZ,Calle de Santa Teresa de Jesús SN,40.5971641540527,-3.50625419616699,B3,http://www.crtm.es,0,,Europe/Madrid,2
par_8_13033,13033,SANTA TERESA DE JESÚS-J.RAMÓN JIMÉNEZ,Calle de Santa Teresa de Jesús SN,40.5973052978516,-3.50660967826843,B3,http://www.crtm.es,0,,Europe/Madrid,2
par_8_17999,17999,ALGETE-CTRA.ALALPARDO,Calle  Algete 18,40.6323509216309,-3.5106348991394,C1,http://www.crtm.es,0,,Europe/Madrid,0
par_8_18000,18000,ALGETE-CTRA.ALALPARDO,Calle  Algete 18,40.6323852539063,-3.51087164878845,C1,http://www.crtm.es,0,,Europe/Madrid,0
par_8_18743,18743,URB.LAS COLINAS-AV.EL CASAR,Av del Casar sn,40.7121315002441,-3.43582963943481,E1,http://www.crtm.es,0,,Europe/Madrid,0
par_8_18746,18746,SAN ROQUE-CTRA.FUENTELSAZ,Calle de San Roque sn,40.7008590698242,-3.43438291549683,E1,http://www.crtm.es,0,,Europe/Madrid,0
par_8_18747,18747,SAN ROQUE-CTRA.FUENTELSAZ,Calle de San Roque sn,40.7010459899902,-3.43431329727173,E1,http://www.crtm.es,0,,Europe/Madrid,0
par_8_18748,18748,AV.VALDETORRES-PARIS,Av de Valdetorres sn,40.699779510498,-3.44054293632507,E1,http://www.crtm.es,0,,Europe/Madrid,0
par_8_18749,18749,AV.VALDETORRES-PARIS,Av de Valdetorres sn,40.6999244689941,-3.44055581092834,E1,http://www.crtm.es,0,,Europe/Madrid,0
par_8_18750,18750,AV.VALDETORRES-MADRID,Avda de Valdetorres sn,40.7007293701172,-3.44406485557556,E1,http://www.crtm.es,0,,Europe/Madrid,0
par_8_18751,18751,AV.VALDETORRES-MADRID,Av de Valdetorres sn,40.7006034851074,-3.44400477409363,E1,http://www.crtm.es,0,,Europe/Madrid,0
par_8_18752,18752,AV.VALDETORRES-AV.MEDITERRÁNEO,Av de Valdetorres sn,40.7006416320801,-3.44890546798706,E1,http://www.crtm.es,0,,Europe/Madrid,0
par_8_18753,18753,AV.VALDETORRES-AV.MEDITERRÁNEO,Av de Valdetorres sn,40.7005043029785,-3.44877433776855,E1,http://www.crtm.es,0,,Europe/Madrid,0
par_8_18754,18754,AV.VALDETORRES-ISLAS VIRGENES,Av de Valdetorres sn,40.6999893188477,-3.45374250411987,E1,http://www.crtm.es,0,,Europe/Madrid,0
par_8_18755,18755,AV.VALDETORRES-ISLAS VIRGENES,Av de Valdetorres sn,40.6998558044434,-3.45368242263794,E1,http://www.crtm.es,0,,Europe/Madrid,0
par_8_18756,18756,AV.LOS ARENALES-CºPOZO,Av. de  Los Arenales sn,40.6941413879395,-3.45631837844849,E1,http://www.crtm.es,0,,Europe/Madrid,0
par_8_18757,18757,AV.LOS ARENALES-URB.EL COTO,Av. de Los Arenales sn,40.6941604614258,-3.4559280872345,E1,http://www.crtm.es,0,,Europe/Madrid,0
par_8_11691,11691,PALOMARES-PARQUE LOS OLIVOS,Calle de los Palomares 21,40.5967979431152,-3.50269389152527,B3,http://www.crtm.es,0,,Europe/Madrid,2
par_8_11692,11692,OLIVOS-MARÍA AMOR,Calle de los Olivos 18,40.5993003845215,-3.50117635726929,B3,http://www.crtm.es,0,,Europe/Madrid,2
par_8_11693,11693,OLIVOS-MARÍA AMOR,Calle de los Olivos 19,40.5992012023926,-3.50136470794678,B3,http://www.crtm.es,0,,Europe/Madrid,2
par_8_11696,11696,VALDEAMOR-PZA.POETAS,Calle de Valdeamor 117,40.6020545959473,-3.49975490570068,B3,http://www.crtm.es,0,,Europe/Madrid,2
par_8_06879,06879,RONDA HISPANOAMERICANA-PºMADRID,Ronda  Hispano-Americana 176,40.3490943908691,-3.2687361240387,C2,http://www.crtm.es,0,,Europe/Madrid,2
par_8_06880,06880,RONDA HISPANOAMERICANA-CINCO,Ronda  Hispano-Americana 58,40.3533248901367,-3.24981689453125,C2,http://www.crtm.es,0,,Europe/Madrid,2
par_8_06881,06881,RONDA HISPANOAMERICANA-CASA JUVENTUD,Ronda  Hispano-Americana 1,40.3600425720215,-3.24324655532837,C2,http://www.crtm.es,0,,Europe/Madrid,2
par_8_06952,06952,ALALPARDO-CONSERVATORIO,Calle  Alalpardo 2,40.4907984817843,-3.36962230690364,B3,http://www.crtm.es,0,,Europe/Madrid,2
par_8_06976,06976,PZA.PUERTA DEL VADO-PºLAS MORERAS,Plaza   Puerta del Vado 3,40.4770779356271,-3.366786443771,B3,http://www.crtm.es,0,,Europe/Madrid,2
par_8_06980,06980,LUIS VIVES-CENTRO DE SALUD,Calle   Luis Vives 11,40.4752998352051,-3.3677225112915,B3,http://www.crtm.es,0,,Europe/Madrid,2
par_8_09157,09157,RONDA HISPANOAMERICANA-NUEVE,Ronda  Hispano-Americana 128,40.350887298584,-3.26071214675903,C2,http://www.crtm.es,0,,Europe/Madrid,2
par_8_09160,09160,CTRA.M219-URB.LAS VILLAS,Ctra de M-219 (Pozuelo del Rey) 13300,40.3649787902832,-3.26778626441956,C2,http://www.crtm.es,0,,Europe/Madrid,2
par_8_09163,09163,CTRA.M204-COLONIA SAN FRANCISCO,Ctra a Villar del Olmo 2,40.3644371032715,-3.24358034133911,C2,http://www.crtm.es,0,,Europe/Madrid,2
par_8_09171,09171,PILILLA-PZA.JOSÉ ANTONIO,Calle  Pililla 4,40.3363609313965,-3.23655676841736,C2,http://www.crtm.es,0,,Europe/Madrid,2
par_8_09453,09453,VÍA COMPLUTENSE-SAN BERNARDO,Calle  Vía Complutense 12,40.4838714599609,-3.36988115310669,B3,http://www.crtm.es,0,,Europe/Madrid,2
par_8_09464,09464,VÍA COMPLUTENSE-SAN BERNARDO,Calle  Vía Complutense 12,40.484058380127,-3.36998844146729,B3,http://www.crtm.es,0,,Europe/Madrid,2
par_8_09737,09737,CTRA.M219-URB.EUROVILLAS,Avda   Atenas 65,40.3646202087402,-3.26721954345703,C2,http://www.crtm.es,0,,Europe/Madrid,2
par_8_09741,09741,RONDA HISPANOAMERICANA-PºMADRID,Ronda  Hispano-Americana 185,40.3490219116211,-3.26851201057434,C2,http://www.crtm.es,0,,Europe/Madrid,2
par_8_09742,09742,RONDA HISPANOAMERICANA-NUEVE,Ronda  Hispano-Americana 133,40.3507804870605,-3.26066470146179,C2,http://www.crtm.es,0,,Europe/Madrid,2
par_8_09743,09743,RONDA HISPANOAMERICANA-CINCO,Ronda   Hispano-Americana 55,40.3533897399902,-3.24889874458313,C2,http://www.crtm.es,0,,Europe/Madrid,2
par_8_09744,09744,RONDA HISPANOAMERICANA-CASA JUVENTUD,Ronda  Hispano-Americana 1,40.359977722168,-3.24309325218201,C2,http://www.crtm.es,0,,Europe/Madrid,2
par_8_09745,09745,MAYOR-PZA.VILLA,Calle  Mayor 28,40.368724822998,-3.22189950942993,C2,http://www.crtm.es,0,,Europe/Madrid,2
par_8_09766,09766,GRAN VÍA-ESTACIÓN DE SERVICIO,Calle   Gran Vía 44,40.2826614379883,-3.20699548721313,C2,http://www.crtm.es,0,,Europe/Madrid,2
par_8_09768,09768,AV.JOSÉ ANTONIO-SAN ISIDRO,Avda de José Antonio 3,40.3266296386719,-3.18349266052246,C2,http://www.crtm.es,0,,Europe/Madrid,2
par_8_09770,09770,CTRA.M204-URB.EL MIRADOR DE BAZTÁN,Ctra   M-204 (Valverde) 28000,40.3751831054688,-3.24875497817993,C2,http://www.crtm.es,0,,Europe/Madrid,2
par_8_09771,09771,CTRA.M204-URB.EL MIRADOR DE BAZTÁN,Urb   Mirador 54,40.375904083252,-3.24902868270874,C2,http://www.crtm.es,0,,Europe/Madrid,2
par_8_09772,09772,CTRA.M204-TRANSFORMADOR,Ctra a Villar del Olmo 2,40.364429473877,-3.24341535568237,C2,http://www.crtm.es,0,,Europe/Madrid,2
par_8_09773,09773,CTRA.M-219-TRVA.JOSÉ CHURRIGUERA,Ctra de M-219 (Pozuelo del Rey) 15500,40.3657417297363,-3.24429178237915,C2,http://www.crtm.es,0,,Europe/Madrid,2
par_8_09774,09774,TRVA.JOSÉ CHURRIGUERA-IGLESIA,Trva  José de Churriguera 2,40.3661499023438,-3.24409294128418,C2,http://www.crtm.es,0,,Europe/Madrid,2
par_8_09776,09776,PZA.VILLA-MAYOR,Plaza de la Villa 11,40.368824005127,-3.22191143035889,C2,http://www.crtm.es,0,,Europe/Madrid,2
par_8_10282,10282,CTRA.M215-COMUNIDAD TERAPÉUTICA,Ctra   M-215 (De M-204 al Límite Provincial por Ambite) 800,40.3208427429199,-3.18945646286011,C2,http://www.crtm.es,0,,Europe/Madrid,2
par_8_10831,10831,RONDA HISPANOAMERICANA-RONDA MANCHESTER,Ronda  Hispano-Americana 270,40.3570137023926,-3.27145266532898,C2,http://www.crtm.es,0,,Europe/Madrid,2
par_8_11568,11568,CTRA.M204-URB.MONTE ACEVEDO,Ctra a Valverde 11,40.3874931335449,-3.25991082191467,C2,http://www.crtm.es,0,,Europe/Madrid,2
par_8_11898,11898,CTRA.M215-MOLINO DEL PUENTE,Ctra de Madrid-Albares 20,40.3271675109863,-3.17979788780212,C2,http://www.crtm.es,0,,Europe/Madrid,2
par_8_12037,12037,CTRA.M204-CºBELLAESCUSA,Ctra   M-204 (Perales-Alvares) 16500,40.2950172424316,-3.19938516616821,C2,http://www.crtm.es,0,,Europe/Madrid,2
par_8_12038,12038,CTRA.M204-CºBELLAESCUSA,Ctra   M-204 (Perales-Alvares) 16500,40.2950057983398,-3.19913816452026,C2,http://www.crtm.es,0,,Europe/Madrid,2
par_8_12415,12415,PºPASTRANA-RÍO TER,Paseo de Pastrana 52,40.4675763705677,-3.36588545011802,B3,http://www.crtm.es,0,,Europe/Madrid,2
par_8_12416,12416,PºPASTRANA-BOLARQUE,Paseo de Pastrana 34,40.4709272257589,-3.36603339659355,B3,http://www.crtm.es,0,,Europe/Madrid,2
par_8_16904,16904,CTRA.M204-URB.MONTE ACEVEDO,Ctra a Valverde 11,40.3872146606445,-3.2592146396637,C2,http://www.crtm.es,0,,Europe/Madrid,2
par_8_17641,17641,MAYOR-PINTOR ÁLVARO DELGADO,Calle  Mayor 69,40.3675689697266,-3.21928071975708,C2,http://www.crtm.es,0,,Europe/Madrid,2
par_8_17642,17642,MAYOR-PINTOR ÁLVARO DELGADO,Calle  Mayor 69,40.3675231933594,-3.21941018104553,C2,http://www.crtm.es,0,,Europe/Madrid,2
par_8_17718,17718,RONDA HISPANOAMERICANA-COMUNIDAD EUROPEA,Ronda  Hispano-Americana 213,40.3500938415527,-3.27276730537415,C2,http://www.crtm.es,0,,Europe/Madrid,2
par_8_17719,17719,RONDA HISPANOAMERICANA-COMUNIDAD EUROPEA,Ronda  Hispano-Americana 200,40.3501396179199,-3.27261424064636,C2,http://www.crtm.es,0,,Europe/Madrid,2
par_8_18805,18805,PºPASTRANA-RONDA FISCAL,Paseo de Pastrana 35,40.4747924804688,-3.3663158416748,B3,http://www.crtm.es,0,,Europe/Madrid,0
par_8_19008,19008,RONDA HISPANOAMERICANA-SIETE,Ronda   Hispano-Americana 88,40.3522262573242,-3.25455856323242,C2,http://www.crtm.es,0,,Europe/Madrid,0
par_8_19009,19009,RONDA HISPANOAMERICANA-SIETE,Ronda   Hispano-Americana 92,40.3520164489746,-3.25517010688782,C2,http://www.crtm.es,0,,Europe/Madrid,0
par_8_19218,19218,RONDA HISPANOAMERICANA-RONDA MANCHESTER,Ronda   Hispano-Americana 270,40.3568725585938,-3.27128720283508,C2,http://www.crtm.es,0,,Europe/Madrid,0
par_8_19891,19891,TORRELAGUNA-GTA.CHORRILLO,Calle   Torrelaguna 27,40.4887063918936,-3.37305628301206,B3,http://www.crtm.es,0,,Europe/Madrid,0
par_8_20333,20333,ALCALÁ-PASEO DE LA CONSTITUCIÓN,Calle   Alcalá 10900,40.4176864624023,-3.29944348335266,C1,http://www.crtm.es,0,,Europe/Madrid,0
par_8_06878,06878,RONDA MANCHESTER-RONDA HISPANOAMERICANA,Calle  Ronda de Manchester 166,40.3559608459473,-3.27130699157715,C2,http://www.crtm.es,0,,Europe/Madrid,2
par_8_06903,06903,AV.FRONTERAS-MADRID,Avda  Fronteras 16,40.4608917236328,-3.48375153541565,B2,http://www.crtm.es,0,,Europe/Madrid,2
par_8_07237,07237,CTRA.LOECHES-JOAQUÍN BLUME,Ctra   Loeches 8700,40.4473075866699,-3.46792316436768,B2,http://www.crtm.es,0,,Europe/Madrid,2
par_8_07238,07238,CTRA.LOECHES-JOAQUÍN BLUME,Ctra   Loeches 8700,40.447624206543,-3.46787810325623,B2,http://www.crtm.es,0,,Europe/Madrid,2
par_8_07272,07272,AV.CONSTITUCIÓN-PZA.FUENTE AMARGA,Avda de la Constitución 10,40.3850936889648,-3.41279053688049,B3,http://www.crtm.es,0,,Europe/Madrid,2
par_8_07275,07275,AV.CONSTITUCIÓN-PZA.FUENTE AMARGA,Avda de la Constitución 10,40.3850860595703,-3.41254305839539,B3,http://www.crtm.es,0,,Europe/Madrid,2
par_8_07313,07313,AV.AMÉRICA-CANILLEJAS,Avda de Logroño 4,40.4500885009766,-3.60798239707947,A,http://www.crtm.es,0,,Europe/Madrid,2
par_8_09003,09003,RDA.STA.SUSANA-MAYOR,Ronda  Santa Susana 1,40.4033470153809,-3.36068415641785,C1,http://www.crtm.es,0,,Europe/Madrid,2
par_8_09158,09158,COMUNIDAD EUROPEA-AV.LUXEMBURGO,Calle de la Comunidad Europea 46,40.3545150756836,-3.26615500450134,C2,http://www.crtm.es,0,,Europe/Madrid,2
par_8_09159,09159,COMUNIDAD EUROPEA-URB.EUROVILLAS,Calle de la Comunidad Europea 4,40.3622550964355,-3.26196908950806,C2,http://www.crtm.es,0,,Europe/Madrid,2
par_8_09170,09170,REAL-NUEVA,Calle del Real 11,40.3654479980469,-3.32101345062256,C1,http://www.crtm.es,0,,Europe/Madrid,2
par_8_09666,09666,PºLOS POZOS-MADRID,Paseo de los Pozos 5,40.4067115783691,-3.36515688896179,C1,http://www.crtm.es,0,,Europe/Madrid,2
par_8_09736,09736,REAL-NUEVA,Calle del Real 16,40.3652839660645,-3.32087135314941,C1,http://www.crtm.es,0,,Europe/Madrid,2
par_8_09738,09738,NUEVE-AV.BRUSELAS,Calle  Nueve 3,40.3622627258301,-3.26174545288086,C2,http://www.crtm.es,0,,Europe/Madrid,2
par_8_09739,09739,COMUNIDAD EUROPEA-CENTRO COMERCIAL,Calle de la Comunidad Europea 43,40.3553428649902,-3.26541638374329,C2,http://www.crtm.es,0,,Europe/Madrid,2
par_8_09740,09740,RONDA MANCHESTER-RONDA HISPANOAMERICANA,Calle  Ronda de Manchester 166,40.3560600280762,-3.27129554748535,C2,http://www.crtm.es,0,,Europe/Madrid,2
par_8_10456,10456,CTRA.M206-POL.IND.EL CABALLO,Ctra de M-206 (Loeches-Torrejón de Ardoz) 800,40.3947296142578,-3.41361546516418,B3,http://www.crtm.es,0,,Europe/Madrid,2
par_8_10835,10835,CANTO-AV.CONSTITUCIÓN,Calle  Canto 5,40.4550590515137,-3.48402810096741,B2,http://www.crtm.es,0,,Europe/Madrid,2
par_8_10836,10836,PºLOS POZOS-CONCEPCIÓN,Paseo de los Pozos 9,40.4064254760742,-3.36521410942078,C1,http://www.crtm.es,0,,Europe/Madrid,2
par_8_12041,12041,AV.CONSTITUCIÓN-VIRGEN DE LAS ANGUSTIAS,Avda de la Constitución 8,40.3841781616211,-3.41130065917969,B3,http://www.crtm.es,0,,Europe/Madrid,2
par_8_12042,12042,CTRA.M219-RESIDENCIA TERCERA EDAD,Ctra de Nuevo Baztán SN,40.3691368103027,-3.29611873626709,C1,http://www.crtm.es,0,,Europe/Madrid,2
par_8_12043,12043,CTRA.M219-RESIDENCIA TERCERA EDAD,Ctra de Nuevo Baztán SN,40.3694229125977,-3.29621434211731,C1,http://www.crtm.es,0,,Europe/Madrid,2
par_8_12049,12049,AV.CONSTITUCIÓN-VIRGEN DE LAS ANGUSTIAS,Avda de la Constitución 43,40.3845367431641,-3.41202139854431,B3,http://www.crtm.es,0,,Europe/Madrid,2
par_8_12477,12477,INTERCAMBIADOR DE AVENIDA AMÉRICA,Avda de América 13,40.4384384155273,-3.67649960517883,A,http://www.crtm.es,0,est_90_4,,2
par_8_12675,12675,AV.CENTRAL-CINCO,Avda  Central 8,40.3862419128418,-3.26324009895325,C2,http://www.crtm.es,0,,Europe/Madrid,2
par_8_12678,12678,RDA.STA.SUSANA-MAYOR,Ronda  Santa Susana 8,40.4034576416016,-3.360684633255,C1,http://www.crtm.es,0,,Europe/Madrid,2
par_8_12755,12755,DERBI-ROA,Calle   Derbi 14,40.4003982543945,-3.41823410987854,B3,http://www.crtm.es,0,,Europe/Madrid,2
par_8_12756,12756,ARGANDA-ESTRELLA,Calle la Estrella 1,40.3819732666016,-3.41136956214905,B3,http://www.crtm.es,0,,Europe/Madrid,2
par_8_12757,12757,ARGANDA-VIRGEN DEL ROSARIO,Calle  Arganda 25,40.3819007873535,-3.41113352775574,B3,http://www.crtm.es,0,,Europe/Madrid,2
par_8_12759,12759,ARGANDA-ANTONIO MACHADO,Calle   Arganda 54,40.379150390625,-3.41240096092224,B3,http://www.crtm.es,0,,Europe/Madrid,2
par_8_1279,1279,AVDA.AMERICA-FCO.SILVELA,Avda de América 2,40.4375610351563,-3.67684459686279,A,http://www.crtm.es,0,est_90_4,,0
par_8_1280,1280,AV.AMERICA-FCO.SILVELA,Avda de América 9 A,40.4378318786621,-3.67691802978516,A,http://www.crtm.es,0,,Europe/Madrid,0
par_8_1285,1285,AV.AMERICA-ARTURO SORIA,Calle de Calidón 3,40.4478378295898,-3.65236043930054,A,http://www.crtm.es,0,,Europe/Madrid,0
par_8_12962,12962,CTRA.M225-GTA.LAS CONEJERAS,Gta de las Conejeras 2,40.4067306518555,-3.36835074424744,C1,http://www.crtm.es,0,,Europe/Madrid,2
par_8_12963,12963,MADRID-POL.IND.LOS VALLEJOS,Calle   Madrid 24,40.4075660705566,-3.37158465385437,C1,http://www.crtm.es,0,,Europe/Madrid,2
par_8_15707,15707,MAYOR-RUBENS,Calle   Mayor 71,40.4008522033691,-3.35805463790894,C1,http://www.crtm.es,0,,Europe/Madrid,2
par_8_15708,15708,MAYOR-SAUCES,Calle  Mayor 66,40.4009857177734,-3.35842061042786,C1,http://www.crtm.es,0,,Europe/Madrid,2
par_8_16238,16238,DERBI-ROA,Ctra de M-206 (Loeches-Torrejón de Ardoz) SN,40.3995971679688,-3.41776967048645,B3,http://www.crtm.es,0,,Europe/Madrid,2
par_8_16247,16247,CTRA.M206-POL.IND.EL CABALLO,Ctra de M-206 (Loeches-Torrejón de Ardoz) 800,40.3946762084961,-3.41374468803406,B3,http://www.crtm.es,0,,Europe/Madrid,2
par_8_16252,16252,AV.EUROPA-ROMA,Calle   Roma 2,40.3881912231445,-3.41564893722534,B3,http://www.crtm.es,0,,Europe/Madrid,2
par_8_16254,16254,ARGANDA-ANTONIO MACHADO,Calle   Arganda 54,40.3791656494141,-3.41217732429504,B3,http://www.crtm.es,0,,Europe/Madrid,2
par_8_16313,16313,PºLOS POZOS-ANTONIO MACHADO,Paseo de los Pozos 17900,40.4041328430176,-3.36336350440979,C1,http://www.crtm.es,0,,Europe/Madrid,2
par_8_16314,16314,PºLOS POZOS-VIENTO,Paseo de los Pozos 27,40.4043769836426,-3.36325860023499,C1,http://www.crtm.es,0,,Europe/Madrid,2
par_8_16731,16731,C7-C19,Calle   C7 8,40.3833847045898,-3.26390051841736,C2,http://www.crtm.es,0,,Europe/Madrid,2
par_8_18255,18255,AV.FRONTERAS-AV.CONSTITUCIÓN,Avda  Fronteras 2 A,40.4559288024902,-3.48323225975037,B2,http://www.crtm.es,0,,Europe/Madrid,0
par_8_18269,18269,AV.EUROPA-ATENAS,Avda   Europa SN,40.3915557861328,-3.41497445106506,B3,http://www.crtm.es,0,,Europe/Madrid,0
par_8_18270,18270,AV.EUROPA-PARÍS,Avda   Europa 6,40.3921051025391,-3.41436529159546,B3,http://www.crtm.es,0,,Europe/Madrid,0
par_8_18279,18279,AV.EUROPA-DUBLÍN,Avda  Europa 4,40.3892059326172,-3.4164092540741,B3,http://www.crtm.es,0,,Europe/Madrid,0
par_8_18582,18582,CTRA.M225-ATENAS,Ctra   M-225 (Loeches) 4900,40.4073753356934,-3.37184286117554,C1,http://www.crtm.es,0,,Europe/Madrid,0
par_8_18583,18583,CTRA.M225-MILÁN,Ctra  M-225 (Loeches) 4000,40.4090042114258,-3.38165736198425,C1,http://www.crtm.es,0,,Europe/Madrid,0
par_8_18584,18584,CTRA.M225-MILÁN,Ctra  M-225 (Loeches) 4000,40.4092102050781,-3.38165855407715,C1,http://www.crtm.es,0,,Europe/Madrid,0
par_8_18954,18954,CTRA.M225-GTA.LAS CONEJERAS,Calle   Madrid 18,40.4071235656738,-3.36891865730286,C1,http://www.crtm.es,0,,Europe/Madrid,0
par_8_18956,18956,DERBI-CAÑADA DEL POZO,Calle   Derbi 22,40.3986930847168,-3.41682124137878,B3,http://www.crtm.es,0,,Europe/Madrid,0
par_8_19186,19186,OLMO-ACACIA,Calle el Olmo 17,40.367057800293,-3.3157913684845,C1,http://www.crtm.es,0,,Europe/Madrid,0
par_8_5617,5617,CANILLEJAS,Calle de Josefa Valcárcel 152,40.4494018554688,-3.60967421531677,A,http://www.crtm.es,0,,Europe/Madrid,0
est_90_4,4,Intercambiador de Avenida de América,Avda de América 9 A,40.43803,-3.67669,A,http://www.crtm.es,1,,Europe/Madrid,0
par_8_07306,07306,CTRA.M111-CºCAMPOSANTO,Ctra  M-111 (Paracuellos-Belvis) 1,40.5159873962402,-3.54669880867004,B1,http://www.crtm.es,0,,Europe/Madrid,2
par_8_07307,07307,CTRA.M111-CºCAMPOSANTO,Ctra  M-111 (Paracuellos-Belvis) 1,40.5158462524414,-3.5462372303009,B1,http://www.crtm.es,0,,Europe/Madrid,2
par_8_07333,07333,AV.LOGROÑO-PZA.PAJARONES,Avda de Logroño 162,40.4752578735352,-3.58230257034302,A,http://www.crtm.es,0,,Europe/Madrid,2
par_8_07335,07335,CTRA.M111-DEPURADORA VALDEBEBAS,Ctra de Antigua de Paracuellos de Jarama 3000,40.4950485229492,-3.55103659629822,B1,http://www.crtm.es,0,,Europe/Madrid,2
par_8_07345,07345,CTRA.M111-POLVORINES,Ctra   M-111 (Paracuellos-Belvis) 4400,40.5075988769531,-3.547527551651,B1,http://www.crtm.es,0,,Europe/Madrid,2
par_8_07347,07347,CTRA.M111-POL.IND.EL PULIDO,Ctra   M-111 (Paracuellos-Belvis) 4700,40.5111885070801,-3.54795813560486,B1,http://www.crtm.es,0,,Europe/Madrid,2
par_8_07348,07348,CTRA.M111-POL.IND.GUILLERMO MESA,Ctra   M-111 (Paracuellos-Belvis) 5700,40.5192909240723,-3.54578113555908,B1,http://www.crtm.es,0,,Europe/Madrid,2
par_8_07349,07349,CTRA.M111-LA GRANJA,Ctra   M-111 (Paracuellos-Belvis) 6300,40.5238952636719,-3.54549980163574,B1,http://www.crtm.es,0,,Europe/Madrid,2
par_8_07350,07350,CTRA.M111-URB.LOMAS DEL JARAMA,Ctra  M-111 (Paracuellos-Belvis) 1,40.5287055969238,-3.54517269134521,B1,http://www.crtm.es,0,,Europe/Madrid,2
par_8_07354,07354,CTRA.M111-URB.LOMAS DEL JARAMA,Ctra   M-111 (Paracuellos-Belvis) 6800,40.5277252197266,-3.54555439949036,B1,http://www.crtm.es,0,,Europe/Madrid,2
par_8_07355,07355,CTRA.M111-LA GRANJA,Ctra   M-111 (Paracuellos-Belvis) 6300,40.5235862731934,-3.54583954811096,B1,http://www.crtm.es,0,,Europe/Madrid,2
par_8_07356,07356,CTRA.M111-POL.IND.GUILLERMO MESA,Ctra   M-111 (Paracuellos-Belvis) 5700,40.5188827514648,-3.54615545272827,B1,http://www.crtm.es,0,,Europe/Madrid,2
par_8_07357,07357,CTRA.M111-POL.IND.EL PULIDO,Ctra   M-111 (Paracuellos-Belvis) 4700,40.5107650756836,-3.54830884933472,B1,http://www.crtm.es,0,,Europe/Madrid,2
par_8_07359,07359,CTRA.M111-PIO BAROJA,Ctra   M-111 (Paracuellos-Belvis) 4200,40.5056686401367,-3.54800748825073,B1,http://www.crtm.es,0,,Europe/Madrid,2
par_8_07360,07360,CTRA.M111-POL.IND.EL CERVELLÓN,Ctra   M-111 (Paracuellos-Belvis) 3500,40.4989585876465,-3.54696178436279,B1,http://www.crtm.es,0,,Europe/Madrid,2
par_8_07361,07361,CTRA.M111-DEPURADORA VALDEBEBAS,Ctra de Antigua de Paracuellos de Jarama 3000,40.4953842163086,-3.55106282234192,B1,http://www.crtm.es,0,,Europe/Madrid,2
par_8_16198,16198,CTRA.M111-POL.IND.LAMA,Ctra   M-111 (Paracuellos-Belvis) 3700,40.500057220459,-3.54764318466187,B1,http://www.crtm.es,0,,Europe/Madrid,2
par_8_17306,17306,AV.LOGROÑO-EST.BARAJAS,Avda de Logroño 365,40.4760208129883,-3.58241534233093,A,http://www.crtm.es,0,,Europe/Madrid,2
par_8_07022,07022,PºESTACIÓN-ZULOAGA,Paseo de la Estación 10,40.4878517978603,-3.36419023732577,B3,http://www.crtm.es,0,,Europe/Madrid,2
par_8_07026,07026,AV.GUADALAJARA-BRIHUEGA,Avda   Guadalajara 3,40.4860618458666,-3.36041666817334,B3,http://www.crtm.es,0,,Europe/Madrid,2
par_8_07219,07219,PºPASTRANA-PZA.PUERTA DEL VADO,Plaza   Puerta del Vado 12,40.4769865368955,-3.36719885713126,B3,http://www.crtm.es,0,,Europe/Madrid,2
par_8_07311,07311,CORPA-PZA.ESPAÑA,Plaza de España 4,40.4269500879452,-3.26140582565872,C2,http://www.crtm.es,0,,Europe/Madrid,2
par_8_07387,07387,PEZUELA-SANTA ANA,Calle de Santa Ana 3,40.4189187943488,-3.17838018008496,C2,http://www.crtm.es,0,,Europe/Madrid,2
par_8_08993,08993,AV.URBA-URB.EL ROBLEDAL,Avda la Urba 5,40.4344739625741,-3.28006321469805,C1,http://www.crtm.es,0,,Europe/Madrid,2
par_8_08994,08994,VILLALBILLA-PZA.QUIOSCO,Calle   Mondéjar 28,40.4334678702904,-3.3004319104972,C1,http://www.crtm.es,0,,Europe/Madrid,2
par_8_08996,08996,CTRA.M204-EL GURUGÚ,Ctra de M-204 Alcalá-Villar del Olmo SN,40.4521239668944,-3.34305272800389,C1,http://www.crtm.es,0,,Europe/Madrid,2
par_8_08999,08999,CTRA.M300-EL GURUGÚ,Ctra   M-300 (Alcalá-Loeches) 23.800,40.4520710530623,-3.34569411246694,C1,http://www.crtm.es,0,,Europe/Madrid,2
par_8_09444,09444,VILLALBILLA-PZA.QUIOSCO,Calle   Alcalá 12,40.433037768283,-3.29953397311575,C1,http://www.crtm.es,0,,Europe/Madrid,2
par_8_09465,09465,DEMETRIO DUCAS-ESCUELA INFANTIL,Calle   Demetrio Ducas SN,40.4796135523199,-3.37393797881472,B3,http://www.crtm.es,0,,Europe/Madrid,2
par_8_09528,09528,CORPA-PZA.ESPAÑA,Ctra de Pezuela 200,40.4269127179628,-3.26199511673534,C2,http://www.crtm.es,0,,Europe/Madrid,2
par_8_09665,09665,PEZUELA-SANTA ANA,Calle   Mayor 1,40.4207656569445,-3.1783732705421,C2,http://www.crtm.es,0,,Europe/Madrid,2
par_8_12040,12040,CTRA.M204-EL GURUGÚ,Ctra de M-204 Alcalá-Villar del Olmo SN,40.4521857679898,-3.34347759448212,C1,http://www.crtm.es,0,,Europe/Madrid,2
par_8_12245,12245,MARCOS MARTÍNEZ-PºESTACIÓN,Calle   Marcos Martínez 2,40.4887418781351,-3.36476142529562,B3,http://www.crtm.es,0,,Europe/Madrid,2
par_8_12534,12534,MADRESELVA-VALDELÁGUILA,Calle  Madreselva 8,40.4414058335813,-3.28943064478116,C1,http://www.crtm.es,0,,Europe/Madrid,2
par_8_12535,12535,MADRESELVA-VALDELÁGUILA,Ctra  Villalbilla-Valdeláguila 8,40.4410259529877,-3.29003036550078,C1,http://www.crtm.es,0,,Europe/Madrid,2
par_8_12536,12536,ESPLIEGO-TOMILLO,Calle   Espliego 23,40.4441465140946,-3.28502050447353,C1,http://www.crtm.es,0,,Europe/Madrid,2
par_8_12537,12537,ESPLIEGO-TOMILLO,Calle   Espliego 21,40.4442729001784,-3.28491491262625,C1,http://www.crtm.es,0,,Europe/Madrid,2
par_8_12538,12538,AV.ROMERO-TOMILLO,Avda   Romero 56,40.4419847866613,-3.28484629515796,C1,http://www.crtm.es,0,,Europe/Madrid,2
par_8_12539,12539,AV.ROMERO-TOMILLO,Avda   Romero 56,40.4418044344203,-3.28491628176505,C1,http://www.crtm.es,0,,Europe/Madrid,2
par_8_12540,12540,AV.ROMERO-ESPLIEGO,Avda   Romero 23,40.4428797551634,-3.27989764254669,C1,http://www.crtm.es,0,,Europe/Madrid,2
par_8_12541,12541,AV.ROMERO-ESPLIEGO,Avda   Romero 25,40.4427079863122,-3.2801445509792,C1,http://www.crtm.es,0,,Europe/Madrid,2
par_8_12542,12542,AV.OLIMPIADA-CLUB DE GOLF,Avda   Olimpiada 14,40.4333934972497,-3.27606197468652,C1,http://www.crtm.es,0,,Europe/Madrid,2
par_8_12543,12543,AV.OLIMPIADA-CLUB DE GOLF,Avda   Olimpiada 38,40.4336398555374,-3.27475430465525,C1,http://www.crtm.es,0,,Europe/Madrid,2
par_8_12544,12544,AV.URBA-AV.ROBLEDAL,Avda la Urba 5,40.4345466904545,-3.27979234540383,C1,http://www.crtm.es,0,,Europe/Madrid,2
par_8_15161,15161,CTRA.M204-POL.IND.LOS BORDALES,Ctra de M-204 Alcalá-Villar del Olmo 22,40.4405395812657,-3.31741897355459,C1,http://www.crtm.es,0,,Europe/Madrid,2
par_8_15162,15162,CTRA.M204-POL.IND.LOS BORDALES,Calle  Blasco de Garay 23,40.43929987866,-3.31612793804928,C1,http://www.crtm.es,0,,Europe/Madrid,2
par_8_15163,15163,CTRA.M233-PARQUE ARROYO DEL TESORO,Ctra  Villalbilla-Valdeláguila sn,40.4350371004473,-3.3032449451934,C1,http://www.crtm.es,0,,Europe/Madrid,2
par_8_15164,15164,CTRA.M233-PARQUE ARROYO DEL TESORO,Ctra  Villalbilla-Valdeláguila sn,40.4347580721958,-3.30314937102069,C1,http://www.crtm.es,0,,Europe/Madrid,2
par_8_15366,15366,CTRA.M204-POL.IND.EL GURUGÚ,Ctra de M-204 Alcalá-Villar del Olmo 39700,40.4498306082913,-3.33557628338758,C1,http://www.crtm.es,0,,Europe/Madrid,2
par_8_15367,15367,CTRA.M204-POL.IND.EL GURUGÚ,Ctra de M-204 Alcalá-Villar del Olmo 41,40.4492942453711,-3.33413491671605,C1,http://www.crtm.es,0,,Europe/Madrid,2
par_8_17751,17751,AV.PARQUES NATURALES-MONFRAGÜE,Avda de los Parques Naturales 29,40.4336894746823,-3.28768802201993,C1,http://www.crtm.es,0,,Europe/Madrid,0
par_8_17752,17752,AV.PARQUES NATURALES-ARRIBES DEL DUERO,Avda de los Parques Naturales 30,40.4334280403661,-3.2877576469169,C1,http://www.crtm.es,0,,Europe/Madrid,0
par_8_17753,17753,AV.PARQUES NATURALES-COLEGIO,Avda de los Parques Naturales 9,40.432205501128,-3.29028720708156,C1,http://www.crtm.es,0,,Europe/Madrid,0
par_8_17754,17754,AV.PARQUES NATURALES-LAGO SANABRIA,Avda de los Parques Naturales 5,40.4318627185284,-3.29046257669713,C1,http://www.crtm.es,0,,Europe/Madrid,0
par_8_17757,17757,CºCORPA-SIERRA LA DEMANDA,Cmno de Corpa 34,40.430660542889,-3.28845321215888,C1,http://www.crtm.es,0,,Europe/Madrid,0
par_8_17758,17758,CºCORPA-HAYEDO DE MONTEJO,Cmno de Corpa 34,40.4305077443146,-3.28831108722524,C1,http://www.crtm.es,0,,Europe/Madrid,0
par_8_17759,17759,HAYEDO DE MONTEJO-PEÑA DE FRANCIA,Calle  Hoyedo Montejo 33,40.43255571154,-3.28348605812671,C1,http://www.crtm.es,0,,Europe/Madrid,0
par_8_17760,17760,HAYEDO DE MONTEJO-PEÑA DE FRANCIA,Calle  Hoyedo Montejo 33,40.4326637895551,-3.28349830171401,C1,http://www.crtm.es,0,,Europe/Madrid,0
par_8_17764,17764,CTRA.VALDELÁGUILA-POLIDEPORTIVO,Ctra   Villalbilla-Valdeláguila 1,40.4376836769798,-3.29710214790094,C1,http://www.crtm.es,0,,Europe/Madrid,0
par_8_17765,17765,CTRA.VALDELÁGUILA-POLIDEPORTIVO,Ctra   Villalbilla-Valdeláguila 1,40.4376388143065,-3.29703120692022,C1,http://www.crtm.es,0,,Europe/Madrid,0
par_8_17767,17767,CTRA.M204-ESTACIÓN DE SERVICIO,Ctra de M-204 Alcalá-Villar del Olmo 38700,40.4445064126761,-3.32288543504117,C1,http://www.crtm.es,0,,Europe/Madrid,0
par_8_18456,18456,AV.URBA-PZA.URBA,Avda la Urba 8,40.4336784884004,-3.2811681643166,C1,http://www.crtm.es,0,,Europe/Madrid,0
par_8_18457,18457,AV.URBA-PZA.URBA,Avda la Urba 8,40.4337770126979,-3.28140437291679,C1,http://www.crtm.es,0,,Europe/Madrid,0
par_8_18501,18501,PEZUELA-URB.LOS CAMINOS,Calle de la Encina 43,40.4237689409464,-3.17022378483327,C2,http://www.crtm.es,0,,Europe/Madrid,0
par_8_18502,18502,PEZUELA-URB.LOS CAMINOS,Calle de la Encina 43,40.423886214036,-3.17011798667674,C2,http://www.crtm.es,0,,Europe/Madrid,0
par_8_20172,20172,AV.ROMERO-MIRTO,Avda   Romero 6,40.4432996804783,-3.2776118188159,C1,http://www.crtm.es,0,,Europe/Madrid,0
par_8_20173,20173,AV.ROMERO-MIRTO,Avda   Romero 1,40.4433373564149,-3.27692806207665,C1,http://www.crtm.es,0,,Europe/Madrid,0
par_8_20399,20399,AV.GUADALAJARA-BRIHUEGA,Avda   Guadalajara 7,40.4861710175135,-3.3600750794315,B3,http://www.crtm.es,0,,Europe/Madrid,0
par_8_20659,20659,DEMETRIO DUCAS-AV.MADRID,Calle   Demetrio Ducas 1,40.4803069210325,-3.37403621040091,B3,http://www.crtm.es,0,,Europe/Madrid,0
par_8_99301,99301,PIOZ-URB.LAS MATILLAS,Ctra  M-234 SN,40.4452155733945,-3.17280134914831,E1,http://www.crtm.es,0,,Europe/Madrid,2
par_8_99302,99302,PIOZ-URB.LAS MATILLAS,Ctra  M-234 SN,40.4457565160844,-3.1725315180835,E1,http://www.crtm.es,0,,Europe/Madrid,2
par_8_99303,99303,PIOZ-CRUCE CTRA.GUADALAJARA,Ctra  CM-227 SN,40.4519590227773,-3.16961089792935,E1,http://www.crtm.es,0,,Europe/Madrid,2
par_8_99304,99304,PIOZ-CRUCE CTRA.GUADALAJARA,Ctra  CM-227 SN,40.4518420102094,-3.16953984523622,E1,http://www.crtm.es,0,,Europe/Madrid,2
par_8_99305,99305,PIOZ-PZA.PUEBLO,Ctra de Mondéjar SN,40.4624541608731,-3.17585322457866,E1,http://www.crtm.es,0,,Europe/Madrid,2
par_8_07309,07309,SANTORCAZ-AYUNTAMIENTO,Plaza de la Constitución 7,40.4722898557495,-3.23305726568,C2,http://www.crtm.es,0,,Europe/Madrid,2
par_8_07388,07388,ANCHUELO-PZA.CONSTITUCIÓN,Ctra de Pastrana 2,40.4659687025985,-3.26895284248687,C1,http://www.crtm.es,0,,Europe/Madrid,2
par_8_08997,08997,CTRA.M213-URB.LOS GIGANTES,Ctra   M-213 (Alcalá-Pastrana) 500,40.4546086831556,-3.34060051466633,C1,http://www.crtm.es,0,,Europe/Madrid,2
par_8_09164,09164,SOLEDAD-PASEO DE LA VISERA,Calle de la Soledad 17,40.5028691646177,-3.25303764558258,C1,http://www.crtm.es,0,,Europe/Madrid,2
par_8_09165,09165,AV.MADRID-CERVANTES,Calle del Horno 4,40.501454696464,-3.25715114328239,C1,http://www.crtm.es,0,,Europe/Madrid,2
par_8_09166,09166,AV.MADRID-PZA.DE TOROS,Avda de Madrid 60,40.4999093619858,-3.25930491405454,C1,http://www.crtm.es,0,,Europe/Madrid,2
par_8_11427,11427,PUERTA UNIVERSO-CHINCHÓN,Calle   Vía Complutense 115,40.4926702278398,-3.35004424841252,B3,http://www.crtm.es,0,,Europe/Madrid,2
par_8_12662,12662,SANTORCAZ-ERMITA LA SOLEDAD,Calle de Jesualdo Domínguez 36,40.4746191869723,-3.23055254575396,C2,http://www.crtm.es,0,,Europe/Madrid,2
par_8_16949,16949,C.C.QUADERNILLOS-EST.ALCALÁ UNIVERSIDAD,Calle   33 9,40.5051965291486,-3.33347978503958,B3,http://www.crtm.es,0,,Europe/Madrid,2
par_8_20658,20658,LA NORIA-POZO DE GUADALAJARA,Calle la Noria 1,40.4936770666023,-3.18300315202024,E1,http://www.crtm.es,0,,Europe/Madrid,0
par_8_07113,07113,AV.ESPAÑA-CENTRO DE ESPECIALIDADES,Avda de España 91,40.4212330336279,-3.55223324359871,B1,http://www.crtm.es,0,,Europe/Madrid,2
par_8_07117,07117,MÉJICO-EST.LA RAMBLA,Calle   Méjico 8,40.4239503766005,-3.54725729894137,B1,http://www.crtm.es,0,,Europe/Madrid,2
par_8_07118,07118,HONDURAS-CENTRO COMERCIAL,Calle   Honduras 16,40.4241667481575,-3.54340432113429,B1,http://www.crtm.es,0,,Europe/Madrid,2
par_8_07161,07161,HONDURAS-CENTRO COMERCIAL,Calle   Honduras 16,40.4242483244118,-3.54329888396878,B1,http://www.crtm.es,0,,Europe/Madrid,2
par_8_07166,07166,MÉJICO-EST.LA RAMBLA,Calle   Méjico 6,40.4238048991426,-3.54753903444581,B1,http://www.crtm.es,0,,Europe/Madrid,2
par_8_07167,07167,AV.ESPAÑA-CENTRO DE ESPECIALIDADES,Avda de España 93,40.421504136609,-3.55205864502128,B1,http://www.crtm.es,0,,Europe/Madrid,2
par_8_07243,07243,CTRA.MEJORADA-AV.SAN SEBASTIÁN,Ctra   Mejorada 24,40.4206070787618,-3.53202426586281,B1,http://www.crtm.es,0,,Europe/Madrid,2
par_8_07244,07244,CTRA.MEJORADA-EST.HENARES,Ctra de San Fernando a Mejorada 2.800,40.4172507004558,-3.52722410469312,B1,http://www.crtm.es,0,,Europe/Madrid,2
par_8_07254,07254,CTRA.M206-PALACIO EL NEGRALEJO,Ctra   M-206 3.500,40.4061964362145,-3.51931257189014,B1,http://www.crtm.es,0,,Europe/Madrid,2
par_8_07255,07255,CTRA.M203-CRUCE CTRA.CRISTO DE RIVAS,Ctra   M-203 (Mejorada del Campo) 8500,40.3938373623506,-3.51701421121744,B1,http://www.crtm.es,0,,Europe/Madrid,2
par_8_07256,07256,CTRA.M203-VIVEROS,Ctra  M-203 (A3-Alcalá por Mejorada) 9.080,40.3946405643225,-3.50445964579859,B2,http://www.crtm.es,0,,Europe/Madrid,2
par_8_07260,07260,AV.JUAN GRIS-MIGUEL HERNÁNDEZ,Avda de Juan Gris 4,40.3951964972818,-3.48399649679782,B2,http://www.crtm.es,0,,Europe/Madrid,2
par_8_07261,07261,AV.JUAN GRIS-FRANCISCO DE GOYA,Avda de Juan Gris 32,40.3926205838481,-3.48383666126287,B2,http://www.crtm.es,0,,Europe/Madrid,2
par_8_07262,07262,CASTILLA-POLÍGONO INDUSTRIAL,Calle de Castilla 3,40.3889627297708,-3.48388117537652,B2,http://www.crtm.es,0,,Europe/Madrid,2
par_8_07265,07265,FEDERICO GARCÍA LORCA-MIRLOS,Calle de Federico García Lorca 36,40.3735117806338,-3.48827034799425,B2,http://www.crtm.es,0,,Europe/Madrid,2
par_8_07270,07270,CTRA.M217-FINCA LA LINDE,Ctra de M-217 Loeches 2.010,40.3837656053018,-3.46382781993262,B2,http://www.crtm.es,0,,Europe/Madrid,2
par_8_07271,07271,CTRA.M217-SUBESTACIÓN ELÉCTRICA,Ctra de M-217 (Loeches-Velilla de San Antonio) 5500,40.388929911053,-3.42088232005909,B3,http://www.crtm.es,0,,Europe/Madrid,2
par_8_07273,07273,PZA.VILLA-AYUNTAMIENTO,Plaza de la Villa SN,40.3836364746094,-3.40911769866943,B3,http://www.crtm.es,0,,Europe/Madrid,2
par_8_07274,07274,PZA.VILLA-AYUNTAMIENTO,Plaza de la Villa 1,40.3837623596191,-3.40922451019287,B3,http://www.crtm.es,0,,Europe/Madrid,2
par_8_07276,07276,CTRA.M217-SUBESTACIÓN ELÉCTRICA,Ctra de M-217 (Loeches-Velilla de San Antonio) 5500,40.3890828469944,-3.42094218254695,B3,http://www.crtm.es,0,,Europe/Madrid,2
par_8_07277,07277,CTRA.M217-FINCA LA LINDE,Ctra de M-217 Loeches 1900,40.3838189964445,-3.46399312234111,B2,http://www.crtm.es,0,,Europe/Madrid,2
par_8_07279,07279,AV.ILUSTRACIÓN-PAZ CAMACHO,Avda de la Ilustración 56,40.3698327946133,-3.48476907470923,B2,http://www.crtm.es,0,,Europe/Madrid,2
par_8_07280,07280,AV.ILUSTRACIÓN-PARQUE DOÑA CATALINA,Avda de la Ilustración 24,40.3685583384101,-3.48790480046424,B2,http://www.crtm.es,0,,Europe/Madrid,2
par_8_07281,07281,FEDERICO GARCÍA LORCA-OLIVAR,Calle de Federico García Lorca 9,40.3693951123423,-3.48815818627195,B2,http://www.crtm.es,0,,Europe/Madrid,2
par_8_07282,07282,FEDERICO GARCÍA LORCA-MIRLOS,Calle de Federico García Lorca 36,40.3736835939823,-3.48811845616549,B2,http://www.crtm.es,0,,Europe/Madrid,2
par_8_07287,07287,AV.JUAN GRIS-FRANCISCO DE GOYA,Avda de Juan Gris 27 A,40.3924408522709,-3.48372933098561,B2,http://www.crtm.es,0,,Europe/Madrid,2
par_8_07288,07288,AV.JUAN GRIS-MIGUEL HERNÁNDEZ,Avda de Juan Gris 1,40.3950623520663,-3.4837598740657,B2,http://www.crtm.es,0,,Europe/Madrid,2
par_8_07289,07289,AV.CONCORDIA-CIUDAD DE ATENAS,Avda de la Concordia 14 G,40.3981597363027,-3.48417090374268,B2,http://www.crtm.es,0,,Europe/Madrid,2
par_8_07290,07290,AV.CONCORDIA-TRÉBOL,Avda de la Concordia 26,40.4001392915928,-3.48475071718404,B2,http://www.crtm.es,0,,Europe/Madrid,2
par_8_07291,07291,CTRA.M203-VIVEROS,Ctra   M-203 (A3-Alcalá por Mejorada) 9600,40.3947480007283,-3.50461362724038,B2,http://www.crtm.es,0,,Europe/Madrid,2
par_8_07292,07292,CTRA.M203-CRUCE CTRA.CRISTO DE RIVAS,Ctra  Mejorada del Campo (M-203) 1,40.3939376695834,-3.51674397161512,B1,http://www.crtm.es,0,,Europe/Madrid,2
par_8_07293,07293,CTRA.M206-PALACIO EL NEGRALEJO,Ctra  San Fernando 2,40.4063961089953,-3.51898412442066,B1,http://www.crtm.es,0,,Europe/Madrid,2
par_8_07295,07295,CTRA.MEJORADA-EST.HENARES,Ctra de Mejorada 2.800,40.417279553193,-3.52682357283902,B1,http://www.crtm.es,0,,Europe/Madrid,2
par_8_07296,07296,CTRA.MEJORADA-AV.SAN SEBASTIÁN,Ctra   Mejorada 24,40.4205815710954,-3.5316940135738,B1,http://www.crtm.es,0,,Europe/Madrid,2
par_8_09130,09130,AV.ESPAÑA-LAS CONEJERAS,Avda de España 122,40.4206459951474,-3.55629514860166,B1,http://www.crtm.es,0,,Europe/Madrid,2
par_8_09131,09131,AV.ESPAÑA-LAS CONEJERAS,Avda de España 53,40.4207581682871,-3.55732159128446,B1,http://www.crtm.es,0,,Europe/Madrid,2
par_8_09132,09132,AV.ESPAÑA-ZOCO COSLADA,Avda de España 29,40.4207888543893,-3.56029231354679,B1,http://www.crtm.es,0,,Europe/Madrid,2
par_8_09133,09133,AV.ESPAÑA-ZOCO COSLADA,Avda de España 29,40.420599673625,-3.56029074397518,B1,http://www.crtm.es,0,,Europe/Madrid,2
par_8_10012,10012,CASTILLA-POLÍGONO INDUSTRIAL,Calle de Castilla 3,40.389008463709,-3.4837165539282,B2,http://www.crtm.es,0,,Europe/Madrid,2
par_8_10013,10013,AV.CONCORDIA-MAYOR,Avda de la Concordia 31,40.3980238647826,-3.48434668479857,B2,http://www.crtm.es,0,,Europe/Madrid,2
par_8_10014,10014,AV.CONCORDIA-MARQUÉS DE HINOJOSA,Avda de la Concordia 85,40.4001925535083,-3.48493964329246,B2,http://www.crtm.es,0,,Europe/Madrid,2
par_8_10453,10453,CTRA.M208-LA RAYA,Ctra   M-208 (La Poveda a Mejorada por Velilla) 7600,40.3799377225192,-3.48981285836278,B2,http://www.crtm.es,0,,Europe/Madrid,2
par_8_10454,10454,CTRA.M217-CENTRO DE EVANGELIZACIÓN,Ctra de M-217 (Loeches-Velilla de San Antonio) 3.200,40.3884676554305,-3.45032259469302,B3,http://www.crtm.es,0,,Europe/Madrid,2
par_8_10455,10455,CTRA-M206-POL.IND.EL CABALLO,Ctra de M-206 (Loeches-Torrejón de Ardoz) 200,40.3895922199824,-3.40955199104608,B3,http://www.crtm.es,0,,Europe/Madrid,2
par_8_10459,10459,CTRA.M217-CENTRO DE EVANGELIZACIÓN,Ctra de M-217 (Loeches-Velilla de San Antonio) 3100,40.3885663393634,-3.45042928987124,B3,http://www.crtm.es,0,,Europe/Madrid,2
par_8_10460,10460,CTRA.M203-LAVANDERIA,Ctra   M-203 (A3-Alcalá por Mejorada) 11000,40.402091006042,-3.49191780816998,B2,http://www.crtm.es,0,,Europe/Madrid,2
par_8_10461,10461,PORTUGAL-AV.REJA GRANDE,Calle de Portugal 18,40.3888143498023,-3.48917024058872,B2,http://www.crtm.es,0,,Europe/Madrid,2
par_8_10463,10463,DUERO-PORTUGAL,Calle del Duero 7,40.3864467391128,-3.48875253662635,B2,http://www.crtm.es,0,,Europe/Madrid,2
par_8_11015,11015,CTRA.M208-LA RAYA,Ctra   M-208 (La Poveda a Mejorada por Velilla) 7500,40.3794977390912,-3.48946804032252,B2,http://www.crtm.es,0,,Europe/Madrid,2
par_8_11437,11437,ANTONIO PALACIOS-MAYOR,Calle   Antonio Palacios 5,40.3709550955334,-3.48137301153289,B2,http://www.crtm.es,0,,Europe/Madrid,2
par_8_11439,11439,DUERO-CASTILLA,Calle del Duero 22,40.3865003758531,-3.48457045025186,B2,http://www.crtm.es,0,,Europe/Madrid,2
par_8_11440,11440,DUERO-CASTILLA,Calle del Duero 19,40.3866535249404,-3.48457154782327,B2,http://www.crtm.es,0,,Europe/Madrid,2
par_8_11441,11441,OLIVAR-INSTITUTO,Calle   Olivar 59,40.3717278482977,-3.48401701619868,B2,http://www.crtm.es,0,,Europe/Madrid,2
par_8_12262,12262,OLIVAR-INSTITUTO,Calle   Olivar 59,40.3715927656872,-3.48400427070234,B2,http://www.crtm.es,0,,Europe/Madrid,2
par_8_12263,12263,ANTONIO PALACIOS-MAYOR,Calle   Antonio Palacios 5,40.3709005524045,-3.48149041244814,B2,http://www.crtm.es,0,,Europe/Madrid,2
par_8_12264,12264,JOSELITO-SAIZ DE RUEDA,Calle   Saiz de Rueda 26,40.3664465228734,-3.48449747230239,B2,http://www.crtm.es,0,,Europe/Madrid,2
par_8_12265,12265,JOSELITO-PZA.PERÚ,Calle   Joselito 4,40.3660215790524,-3.4848595491123,B2,http://www.crtm.es,0,,Europe/Madrid,2
par_8_12405,12405,AV.VICÁLVARO-GUADALQUIVIR,Avda de Vicálvaro 1,40.4230322960468,-3.53747762936363,B1,http://www.crtm.es,0,,Europe/Madrid,2
